[
  {
    "id": "1101",
    "province_id": "11",
    "name": "SIMEULUE",
    "alt_name": "SIMEULUE",
    "latitude": 2.61667,
    "longitude": 96.08333
  },
  {
    "id": "1102",
    "province_id": "11",
    "name": "ACEH SINGKIL",
    "alt_name": "ACEH SINGKIL",
    "latitude": 2.41667,
    "longitude": 97.91667
  },
  {
    "id": "1103",
    "province_id": "11",
    "name": "ACEH SELATAN",
    "alt_name": "ACEH SELATAN",
    "latitude": 3.16667,
    "longitude": 97.41667
  },
  {
    "id": "1104",
    "province_id": "11",
    "name": "ACEH TENGGARA",
    "alt_name": "ACEH TENGGARA",
    "latitude": 3.36667,
    "longitude": 97.7
  },
  {
    "id": "1105",
    "province_id": "11",
    "name": "ACEH TIMUR",
    "alt_name": "ACEH TIMUR",
    "latitude": 4.63333,
    "longitude": 97.63333
  },
  {
    "id": "1106",
    "province_id": "11",
    "name": "ACEH TENGAH",
    "alt_name": "ACEH TENGAH",
    "latitude": 4.51,
    "longitude": 96.855
  },
  {
    "id": "1107",
    "province_id": "11",
    "name": "ACEH BARAT",
    "alt_name": "ACEH BARAT",
    "latitude": 4.45,
    "longitude": 96.16667
  },
  {
    "id": "1108",
    "province_id": "11",
    "name": "ACEH BESAR",
    "alt_name": "ACEH BESAR",
    "latitude": 5.38333,
    "longitude": 95.51667
  },
  {
    "id": "1109",
    "province_id": "11",
    "name": "PIDIE",
    "alt_name": "PIDIE",
    "latitude": 5.08,
    "longitude": 96.11
  },
  {
    "id": "1110",
    "province_id": "11",
    "name": "BIREUEN",
    "alt_name": "BIREUEN",
    "latitude": 5.08333,
    "longitude": 96.58333
  },
  {
    "id": "1111",
    "province_id": "11",
    "name": "ACEH UTARA",
    "alt_name": "ACEH UTARA",
    "latitude": 4.97,
    "longitude": 97.14
  },
  {
    "id": "1112",
    "province_id": "11",
    "name": "ACEH BARAT DAYA",
    "alt_name": "ACEH BARAT DAYA",
    "latitude": 3.83333,
    "longitude": 96.88333
  },
  {
    "id": "1113",
    "province_id": "11",
    "name": "GAYO LUES",
    "alt_name": "GAYO LUES",
    "latitude": 3.95,
    "longitude": 97.39
  },
  {
    "id": "1114",
    "province_id": "11",
    "name": "ACEH TAMIANG",
    "alt_name": "ACEH TAMIANG",
    "latitude": 4.25,
    "longitude": 97.96667
  },
  {
    "id": "1115",
    "province_id": "11",
    "name": "NAGAN RAYA",
    "alt_name": "NAGAN RAYA",
    "latitude": 4.16667,
    "longitude": 96.51667
  },
  {
    "id": "1116",
    "province_id": "11",
    "name": "ACEH JAYA",
    "alt_name": "ACEH JAYA",
    "latitude": 4.86,
    "longitude": 95.64
  },
  {
    "id": "1117",
    "province_id": "11",
    "name": "BENER MERIAH",
    "alt_name": "BENER MERIAH",
    "latitude": 4.73015,
    "longitude": 96.86156
  },
  {
    "id": "1118",
    "province_id": "11",
    "name": "PIDIE JAYA",
    "alt_name": "PIDIE JAYA",
    "latitude": 5.15,
    "longitude": 96.21667
  },
  {
    "id": "1171",
    "province_id": "11",
    "name": "BANDA ACEH",
    "alt_name": "BANDA ACEH",
    "latitude": 5.54167,
    "longitude": 95.33333
  },
  {
    "id": "1172",
    "province_id": "11",
    "name": "SABANG",
    "alt_name": "SABANG",
    "latitude": 5.82164,
    "longitude": 95.31086
  },
  {
    "id": "1173",
    "province_id": "11",
    "name": "LANGSA",
    "alt_name": "LANGSA",
    "latitude": 4.47,
    "longitude": 97.93
  },
  {
    "id": "1174",
    "province_id": "11",
    "name": "LHOKSEUMAWE",
    "alt_name": "LHOKSEUMAWE",
    "latitude": 5.13333,
    "longitude": 97.06667
  },
  {
    "id": "1175",
    "province_id": "11",
    "name": "SUBULUSSALAM",
    "alt_name": "SUBULUSSALAM",
    "latitude": 2.75,
    "longitude": 97.93333
  },
  {
    "id": "1201",
    "province_id": "12",
    "name": "NIAS",
    "alt_name": "NIAS",
    "latitude": 1.03333,
    "longitude": 97.76667
  },
  {
    "id": "1202",
    "province_id": "12",
    "name": "MANDAILING NATAL",
    "alt_name": "MANDAILING NATAL",
    "latitude": 0.78378,
    "longitude": 99.25495
  },
  {
    "id": "1203",
    "province_id": "12",
    "name": "TAPANULI SELATAN",
    "alt_name": "TAPANULI SELATAN",
    "latitude": 1.51667,
    "longitude": 99.25
  },
  {
    "id": "1204",
    "province_id": "12",
    "name": "TAPANULI TENGAH",
    "alt_name": "TAPANULI TENGAH",
    "latitude": 1.9,
    "longitude": 98.66667
  },
  {
    "id": "1205",
    "province_id": "12",
    "name": "TAPANULI UTARA",
    "alt_name": "TAPANULI UTARA",
    "latitude": 2.0028,
    "longitude": 99.0707
  },
  {
    "id": "1206",
    "province_id": "12",
    "name": "TOBA SAMOSIR",
    "alt_name": "TOBA SAMOSIR",
    "latitude": 2.39793,
    "longitude": 99.21678
  },
  {
    "id": "1207",
    "province_id": "12",
    "name": "LABUHAN BATU",
    "alt_name": "LABUHAN BATU",
    "latitude": 2.26667,
    "longitude": 100.1
  },
  {
    "id": "1208",
    "province_id": "12",
    "name": "ASAHAN",
    "alt_name": "ASAHAN",
    "latitude": 2.78333,
    "longitude": 99.55
  },
  {
    "id": "1209",
    "province_id": "12",
    "name": "SIMALUNGUN",
    "alt_name": "SIMALUNGUN",
    "latitude": 2.9,
    "longitude": 99
  },
  {
    "id": "1210",
    "province_id": "12",
    "name": "DAIRI",
    "alt_name": "DAIRI",
    "latitude": 2.86667,
    "longitude": 98.23333
  },
  {
    "id": "1211",
    "province_id": "12",
    "name": "KARO",
    "alt_name": "KARO",
    "latitude": 3.11667,
    "longitude": 98.3
  },
  {
    "id": "1212",
    "province_id": "12",
    "name": "DELI SERDANG",
    "alt_name": "DELI SERDANG",
    "latitude": 3.41667,
    "longitude": 98.66667
  },
  {
    "id": "1213",
    "province_id": "12",
    "name": "LANGKAT",
    "alt_name": "LANGKAT",
    "latitude": 3.71667,
    "longitude": 98.21667
  },
  {
    "id": "1214",
    "province_id": "12",
    "name": "NIAS SELATAN",
    "alt_name": "NIAS SELATAN",
    "latitude": 0.77,
    "longitude": 97.75
  },
  {
    "id": "1215",
    "province_id": "12",
    "name": "HUMBANG HASUNDUTAN",
    "alt_name": "HUMBANG HASUNDUTAN",
    "latitude": 2.26551,
    "longitude": 98.50376
  },
  {
    "id": "1216",
    "province_id": "12",
    "name": "PAKPAK BHARAT",
    "alt_name": "PAKPAK BHARAT",
    "latitude": 2.56667,
    "longitude": 98.28333
  },
  {
    "id": "1217",
    "province_id": "12",
    "name": "SAMOSIR",
    "alt_name": "SAMOSIR",
    "latitude": 2.64025,
    "longitude": 98.71525
  },
  {
    "id": "1218",
    "province_id": "12",
    "name": "SERDANG BEDAGAI",
    "alt_name": "SERDANG BEDAGAI",
    "latitude": 3.36667,
    "longitude": 99.03333
  },
  {
    "id": "1219",
    "province_id": "12",
    "name": "BATU BARA",
    "alt_name": "BATU BARA",
    "latitude": 3.16166,
    "longitude": 99.52652
  },
  {
    "id": "1220",
    "province_id": "12",
    "name": "PADANG LAWAS UTARA",
    "alt_name": "PADANG LAWAS UTARA",
    "latitude": 1.46011,
    "longitude": 99.67346
  },
  {
    "id": "1221",
    "province_id": "12",
    "name": "PADANG LAWAS",
    "alt_name": "PADANG LAWAS",
    "latitude": 1.44684,
    "longitude": 99.99207
  },
  {
    "id": "1222",
    "province_id": "12",
    "name": "LABUHAN BATU SELATAN",
    "alt_name": "LABUHAN BATU SELATAN",
    "latitude": 1.983,
    "longitude": 100.0976
  },
  {
    "id": "1223",
    "province_id": "12",
    "name": "LABUHAN BATU UTARA",
    "alt_name": "LABUHAN BATU UTARA",
    "latitude": 2.33349,
    "longitude": 99.63776
  },
  {
    "id": "1224",
    "province_id": "12",
    "name": "NIAS UTARA",
    "alt_name": "NIAS UTARA",
    "latitude": 1.33037,
    "longitude": 97.31964
  },
  {
    "id": "1225",
    "province_id": "12",
    "name": "NIAS BARAT",
    "alt_name": "NIAS BARAT",
    "latitude": 1.05966,
    "longitude": 97.58606
  },
  {
    "id": "1271",
    "province_id": "12",
    "name": "SIBOLGA",
    "alt_name": "SIBOLGA",
    "latitude": 1.73333,
    "longitude": 98.8
  },
  {
    "id": "1272",
    "province_id": "12",
    "name": "TANJUNG BALAI",
    "alt_name": "TANJUNG BALAI",
    "latitude": 2.95833,
    "longitude": 99.79167
  },
  {
    "id": "1273",
    "province_id": "12",
    "name": "PEMATANG SIANTAR",
    "alt_name": "PEMATANG SIANTAR",
    "latitude": 2.96667,
    "longitude": 99.05
  },
  {
    "id": "1274",
    "province_id": "12",
    "name": "TEBING TINGGI",
    "alt_name": "TEBING TINGGI",
    "latitude": 3.325,
    "longitude": 99.14167
  },
  {
    "id": "1275",
    "province_id": "12",
    "name": "MEDAN",
    "alt_name": "MEDAN",
    "latitude": 3.65,
    "longitude": 98.66667
  },
  {
    "id": "1276",
    "province_id": "12",
    "name": "BINJAI",
    "alt_name": "BINJAI",
    "latitude": 3.8,
    "longitude": 108.23333
  },
  {
    "id": "1277",
    "province_id": "12",
    "name": "PADANG SIDEMPUAN",
    "alt_name": "PADANG SIDEMPUAN",
    "latitude": 1.37375,
    "longitude": 99.26843
  },
  {
    "id": "1278",
    "province_id": "12",
    "name": "GUNUNGSITOLI",
    "alt_name": "GUNUNGSITOLI",
    "latitude": 1.32731,
    "longitude": 97.55018
  },
  {
    "id": "1301",
    "province_id": "13",
    "name": "KEPULAUAN MENTAWAI",
    "alt_name": "KEPULAUAN MENTAWAI",
    "latitude": 1.98917,
    "longitude": 99.51889
  },
  {
    "id": "1302",
    "province_id": "13",
    "name": "PESISIR SELATAN",
    "alt_name": "PESISIR SELATAN",
    "latitude": -1.58333,
    "longitude": 100.85
  },
  {
    "id": "1303",
    "province_id": "13",
    "name": "SOLOK",
    "alt_name": "SOLOK",
    "latitude": -0.96667,
    "longitude": 100.81667
  },
  {
    "id": "1304",
    "province_id": "13",
    "name": "SIJUNJUNG",
    "alt_name": "SIJUNJUNG",
    "latitude": -1.1827,
    "longitude": 101.6056
  },
  {
    "id": "1305",
    "province_id": "13",
    "name": "TANAH DATAR",
    "alt_name": "TANAH DATAR",
    "latitude": -0.4555,
    "longitude": 100.5771
  },
  {
    "id": "1306",
    "province_id": "13",
    "name": "PADANG PARIAMAN",
    "alt_name": "PADANG PARIAMAN",
    "latitude": -0.6,
    "longitude": 100.28333
  },
  {
    "id": "1307",
    "province_id": "13",
    "name": "AGAM",
    "alt_name": "AGAM",
    "latitude": -0.25,
    "longitude": 100.16667
  },
  {
    "id": "1308",
    "province_id": "13",
    "name": "LIMA PULUH KOTA",
    "alt_name": "LIMA PULUH KOTA",
    "latitude": -0.0168,
    "longitude": 100.5872
  },
  {
    "id": "1309",
    "province_id": "13",
    "name": "PASAMAN",
    "alt_name": "PASAMAN",
    "latitude": 0.42503,
    "longitude": 99.94606
  },
  {
    "id": "1310",
    "province_id": "13",
    "name": "SOLOK SELATAN",
    "alt_name": "SOLOK SELATAN",
    "latitude": -1.23333,
    "longitude": 101.417
  },
  {
    "id": "1311",
    "province_id": "13",
    "name": "DHARMASRAYA",
    "alt_name": "DHARMASRAYA",
    "latitude": -1.05,
    "longitude": 101.367
  },
  {
    "id": "1312",
    "province_id": "13",
    "name": "PASAMAN BARAT",
    "alt_name": "PASAMAN BARAT",
    "latitude": 0.28152,
    "longitude": 99.51965
  },
  {
    "id": "1371",
    "province_id": "13",
    "name": "PADANG",
    "alt_name": "PADANG",
    "latitude": -0.98333,
    "longitude": 100.45
  },
  {
    "id": "1372",
    "province_id": "13",
    "name": "SOLOK",
    "alt_name": "SOLOK",
    "latitude": -0.76667,
    "longitude": 100.61667
  },
  {
    "id": "1373",
    "province_id": "13",
    "name": "SAWAH LUNTO",
    "alt_name": "SAWAH LUNTO",
    "latitude": -0.6,
    "longitude": 100.75
  },
  {
    "id": "1374",
    "province_id": "13",
    "name": "PADANG PANJANG",
    "alt_name": "PADANG PANJANG",
    "latitude": -0.45,
    "longitude": 100.43333
  },
  {
    "id": "1375",
    "province_id": "13",
    "name": "BUKITTINGGI",
    "alt_name": "BUKITTINGGI",
    "latitude": -0.275,
    "longitude": 100.375
  },
  {
    "id": "1376",
    "province_id": "13",
    "name": "PAYAKUMBUH",
    "alt_name": "PAYAKUMBUH",
    "latitude": -0.23333,
    "longitude": 100.63333
  },
  {
    "id": "1377",
    "province_id": "13",
    "name": "PARIAMAN",
    "alt_name": "PARIAMAN",
    "latitude": -0.62682,
    "longitude": 100.12047
  },
  {
    "id": "1401",
    "province_id": "14",
    "name": "KUANTAN SINGINGI",
    "alt_name": "KUANTAN SINGINGI",
    "latitude": -0.47532,
    "longitude": 101.45857
  },
  {
    "id": "1402",
    "province_id": "14",
    "name": "INDRAGIRI HULU",
    "alt_name": "INDRAGIRI HULU",
    "latitude": -0.55,
    "longitude": 102.31667
  },
  {
    "id": "1403",
    "province_id": "14",
    "name": "INDRAGIRI HILIR",
    "alt_name": "INDRAGIRI HILIR",
    "latitude": -0.33333,
    "longitude": 103.16667
  },
  {
    "id": "1404",
    "province_id": "14",
    "name": "PELALAWAN",
    "alt_name": "PELALAWAN",
    "latitude": 0.20822,
    "longitude": 102.18607
  },
  {
    "id": "1405",
    "province_id": "14",
    "name": "SIAK",
    "alt_name": "SIAK",
    "latitude": 0.97453,
    "longitude": 102.01355
  },
  {
    "id": "1406",
    "province_id": "14",
    "name": "KAMPAR",
    "alt_name": "KAMPAR",
    "latitude": 0.2344,
    "longitude": 101.2131
  },
  {
    "id": "1407",
    "province_id": "14",
    "name": "ROKAN HULU",
    "alt_name": "ROKAN HULU",
    "latitude": 0.88333,
    "longitude": 100.48333
  },
  {
    "id": "1408",
    "province_id": "14",
    "name": "BENGKALIS",
    "alt_name": "BENGKALIS",
    "latitude": 0.9838,
    "longitude": 102.5096
  },
  {
    "id": "1409",
    "province_id": "14",
    "name": "ROKAN HILIR",
    "alt_name": "ROKAN HILIR",
    "latitude": 2.16599,
    "longitude": 100.82514
  },
  {
    "id": "1410",
    "province_id": "14",
    "name": "KEPULAUAN MERANTI",
    "alt_name": "KEPULAUAN MERANTI",
    "latitude": 0.97488,
    "longitude": 102.69539
  },
  {
    "id": "1471",
    "province_id": "14",
    "name": "PEKANBARU",
    "alt_name": "PEKANBARU",
    "latitude": 0.53333,
    "longitude": 101.46667
  },
  {
    "id": "1473",
    "province_id": "14",
    "name": "DUMAI",
    "alt_name": "DUMAI",
    "latitude": 1.61592,
    "longitude": 101.4917
  },
  {
    "id": "1501",
    "province_id": "15",
    "name": "KERINCI",
    "alt_name": "KERINCI",
    "latitude": -2.03333,
    "longitude": 101.53333
  },
  {
    "id": "1502",
    "province_id": "15",
    "name": "MERANGIN",
    "alt_name": "MERANGIN",
    "latitude": -2.06933,
    "longitude": 102.13303
  },
  {
    "id": "1503",
    "province_id": "15",
    "name": "SAROLANGUN",
    "alt_name": "SAROLANGUN",
    "latitude": -2.3,
    "longitude": 102.65
  },
  {
    "id": "1504",
    "province_id": "15",
    "name": "BATANG HARI",
    "alt_name": "BATANG HARI",
    "latitude": -1.75,
    "longitude": 103.11667
  },
  {
    "id": "1505",
    "province_id": "15",
    "name": "MUARO JAMBI",
    "alt_name": "MUARO JAMBI",
    "latitude": -1.55214,
    "longitude": 103.82163
  },
  {
    "id": "1506",
    "province_id": "15",
    "name": "TANJUNG JABUNG TIMUR",
    "alt_name": "TANJUNG JABUNG TIMUR",
    "latitude": -1.13198,
    "longitude": 103.61755
  },
  {
    "id": "1507",
    "province_id": "15",
    "name": "TANJUNG JABUNG BARAT",
    "alt_name": "TANJUNG JABUNG BARAT",
    "latitude": -1.1544,
    "longitude": 103.24402
  },
  {
    "id": "1508",
    "province_id": "15",
    "name": "TEBO",
    "alt_name": "TEBO",
    "latitude": -1.45576,
    "longitude": 102.37473
  },
  {
    "id": "1509",
    "province_id": "15",
    "name": "BUNGO",
    "alt_name": "BUNGO",
    "latitude": -1.50222,
    "longitude": 101.96
  },
  {
    "id": "1571",
    "province_id": "15",
    "name": "JAMBI",
    "alt_name": "JAMBI",
    "latitude": -1.61667,
    "longitude": 103.65
  },
  {
    "id": "1572",
    "province_id": "15",
    "name": "SUNGAI PENUH",
    "alt_name": "SUNGAI PENUH",
    "latitude": -2.10896,
    "longitude": 101.32175
  },
  {
    "id": "1601",
    "province_id": "16",
    "name": "OGAN KOMERING ULU",
    "alt_name": "OGAN KOMERING ULU",
    "latitude": -4.13333,
    "longitude": 104.03333
  },
  {
    "id": "1602",
    "province_id": "16",
    "name": "OGAN KOMERING ILIR",
    "alt_name": "OGAN KOMERING ILIR",
    "latitude": -3.36667,
    "longitude": 105.36667
  },
  {
    "id": "1603",
    "province_id": "16",
    "name": "MUARA ENIM",
    "alt_name": "MUARA ENIM",
    "latitude": -4.2327,
    "longitude": 103.6141
  },
  {
    "id": "1604",
    "province_id": "16",
    "name": "LAHAT",
    "alt_name": "LAHAT",
    "latitude": -3.7864,
    "longitude": 103.5428
  },
  {
    "id": "1605",
    "province_id": "16",
    "name": "MUSI RAWAS",
    "alt_name": "MUSI RAWAS",
    "latitude": -3.08333,
    "longitude": 103.2
  },
  {
    "id": "1606",
    "province_id": "16",
    "name": "MUSI BANYU ASIN",
    "alt_name": "MUSI BANYU ASIN",
    "latitude": -2.41667,
    "longitude": 103.75
  },
  {
    "id": "1607",
    "province_id": "16",
    "name": "BANYU ASIN",
    "alt_name": "BANYU ASIN",
    "latitude": -2.88333,
    "longitude": 104.38306
  },
  {
    "id": "1608",
    "province_id": "16",
    "name": "OGAN KOMERING ULU SELATAN",
    "alt_name": "OGAN KOMERING ULU SELATAN",
    "latitude": -4.65728,
    "longitude": 104.00659
  },
  {
    "id": "1609",
    "province_id": "16",
    "name": "OGAN KOMERING ULU TIMUR",
    "alt_name": "OGAN KOMERING ULU TIMUR",
    "latitude": -3.85679,
    "longitude": 104.75209
  },
  {
    "id": "1610",
    "province_id": "16",
    "name": "OGAN ILIR",
    "alt_name": "OGAN ILIR",
    "latitude": -3.43186,
    "longitude": 104.62727
  },
  {
    "id": "1611",
    "province_id": "16",
    "name": "EMPAT LAWANG",
    "alt_name": "EMPAT LAWANG",
    "latitude": 3.22667,
    "longitude": 99.09256
  },
  {
    "id": "1612",
    "province_id": "16",
    "name": "PENUKAL ABAB LEMATANG ILIR",
    "alt_name": "PENUKAL ABAB LEMATANG ILIR",
    "latitude": -3.21342,
    "longitude": 104.08722
  },
  {
    "id": "1613",
    "province_id": "16",
    "name": "MUSI RAWAS UTARA",
    "alt_name": "MUSI RAWAS UTARA",
    "latitude": -2.48533,
    "longitude": 103.29346
  },
  {
    "id": "1671",
    "province_id": "16",
    "name": "PALEMBANG",
    "alt_name": "PALEMBANG",
    "latitude": -3,
    "longitude": 104.71667
  },
  {
    "id": "1672",
    "province_id": "16",
    "name": "PRABUMULIH",
    "alt_name": "PRABUMULIH",
    "latitude": -3.46202,
    "longitude": 104.2229
  },
  {
    "id": "1673",
    "province_id": "16",
    "name": "PAGAR ALAM",
    "alt_name": "PAGAR ALAM",
    "latitude": -4.13055,
    "longitude": 103.26822
  },
  {
    "id": "1674",
    "province_id": "16",
    "name": "LUBUK LINGGAU",
    "alt_name": "LUBUK LINGGAU",
    "latitude": -3.29308,
    "longitude": 102.85503
  },
  {
    "id": "1701",
    "province_id": "17",
    "name": "BENGKULU SELATAN",
    "alt_name": "BENGKULU SELATAN",
    "latitude": -4.35,
    "longitude": 103.03333
  },
  {
    "id": "1702",
    "province_id": "17",
    "name": "REJANG LEBONG",
    "alt_name": "REJANG LEBONG",
    "latitude": -3.43333,
    "longitude": 102.71667
  },
  {
    "id": "1703",
    "province_id": "17",
    "name": "BENGKULU UTARA",
    "alt_name": "BENGKULU UTARA",
    "latitude": -3.33333,
    "longitude": 102.05
  },
  {
    "id": "1704",
    "province_id": "17",
    "name": "KAUR",
    "alt_name": "KAUR",
    "latitude": -4.78179,
    "longitude": 103.36109
  },
  {
    "id": "1705",
    "province_id": "17",
    "name": "SELUMA",
    "alt_name": "SELUMA",
    "latitude": -3.96644,
    "longitude": 102.47429
  },
  {
    "id": "1706",
    "province_id": "17",
    "name": "MUKOMUKO",
    "alt_name": "MUKOMUKO",
    "latitude": -3.07438,
    "longitude": 101.54766
  },
  {
    "id": "1707",
    "province_id": "17",
    "name": "LEBONG",
    "alt_name": "LEBONG",
    "latitude": -3.24278,
    "longitude": 102.3349
  },
  {
    "id": "1708",
    "province_id": "17",
    "name": "KEPAHIANG",
    "alt_name": "KEPAHIANG",
    "latitude": -3.60194,
    "longitude": 102.56424
  },
  {
    "id": "1709",
    "province_id": "17",
    "name": "BENGKULU TENGAH",
    "alt_name": "BENGKULU TENGAH",
    "latitude": -3.20679,
    "longitude": 102.12616
  },
  {
    "id": "1771",
    "province_id": "17",
    "name": "BENGKULU",
    "alt_name": "BENGKULU",
    "latitude": -3.81667,
    "longitude": 102.31667
  },
  {
    "id": "1801",
    "province_id": "18",
    "name": "LAMPUNG BARAT",
    "alt_name": "LAMPUNG BARAT",
    "latitude": -5.14904,
    "longitude": 104.19309
  },
  {
    "id": "1802",
    "province_id": "18",
    "name": "TANGGAMUS",
    "alt_name": "TANGGAMUS",
    "latitude": -5.38508,
    "longitude": 104.62349
  },
  {
    "id": "1803",
    "province_id": "18",
    "name": "LAMPUNG SELATAN",
    "alt_name": "LAMPUNG SELATAN",
    "latitude": -5.4531,
    "longitude": 104.9877
  },
  {
    "id": "1804",
    "province_id": "18",
    "name": "LAMPUNG TIMUR",
    "alt_name": "LAMPUNG TIMUR",
    "latitude": -5.10273,
    "longitude": 105.68003
  },
  {
    "id": "1805",
    "province_id": "18",
    "name": "LAMPUNG TENGAH",
    "alt_name": "LAMPUNG TENGAH",
    "latitude": -4.86667,
    "longitude": 105.26667
  },
  {
    "id": "1806",
    "province_id": "18",
    "name": "LAMPUNG UTARA",
    "alt_name": "LAMPUNG UTARA",
    "latitude": -4.81667,
    "longitude": 104.8
  },
  {
    "id": "1807",
    "province_id": "18",
    "name": "WAY KANAN",
    "alt_name": "WAY KANAN",
    "latitude": -4.44705,
    "longitude": 104.52753
  },
  {
    "id": "1808",
    "province_id": "18",
    "name": "TULANGBAWANG",
    "alt_name": "TULANGBAWANG",
    "latitude": -4.20604,
    "longitude": 105.57999
  },
  {
    "id": "1809",
    "province_id": "18",
    "name": "PESAWARAN",
    "alt_name": "PESAWARAN",
    "latitude": -5.4298,
    "longitude": 105.17899
  },
  {
    "id": "1810",
    "province_id": "18",
    "name": "PRINGSEWU",
    "alt_name": "PRINGSEWU",
    "latitude": -5.42211,
    "longitude": 104.93454
  },
  {
    "id": "1811",
    "province_id": "18",
    "name": "MESUJI",
    "alt_name": "MESUJI",
    "latitude": -4.0439,
    "longitude": 105.4013
  },
  {
    "id": "1812",
    "province_id": "18",
    "name": "TULANG BAWANG BARAT",
    "alt_name": "TULANG BAWANG BARAT",
    "latitude": -4.43975,
    "longitude": 105.0444
  },
  {
    "id": "1813",
    "province_id": "18",
    "name": "PESISIR BARAT",
    "alt_name": "PESISIR BARAT",
    "latitude": -5.19323,
    "longitude": 103.93976
  },
  {
    "id": "1871",
    "province_id": "18",
    "name": "BANDAR LAMPUNG",
    "alt_name": "BANDAR LAMPUNG",
    "latitude": -5.41667,
    "longitude": 105.25
  },
  {
    "id": "1872",
    "province_id": "18",
    "name": "METRO",
    "alt_name": "METRO",
    "latitude": -5.11856,
    "longitude": 105.29949
  },
  {
    "id": "1901",
    "province_id": "19",
    "name": "BANGKA",
    "alt_name": "BANGKA",
    "latitude": -1.91667,
    "longitude": 105.93333
  },
  {
    "id": "1902",
    "province_id": "19",
    "name": "BELITUNG",
    "alt_name": "BELITUNG",
    "latitude": -2.86667,
    "longitude": 107.7
  },
  {
    "id": "1903",
    "province_id": "19",
    "name": "BANGKA BARAT",
    "alt_name": "BANGKA BARAT",
    "latitude": -1.95839,
    "longitude": 105.53741
  },
  {
    "id": "1904",
    "province_id": "19",
    "name": "BANGKA TENGAH",
    "alt_name": "BANGKA TENGAH",
    "latitude": -2.33989,
    "longitude": 106.1142
  },
  {
    "id": "1905",
    "province_id": "19",
    "name": "BANGKA SELATAN",
    "alt_name": "BANGKA SELATAN",
    "latitude": -2.66803,
    "longitude": 106.01257
  },
  {
    "id": "1906",
    "province_id": "19",
    "name": "BELITUNG TIMUR",
    "alt_name": "BELITUNG TIMUR",
    "latitude": -2.9627,
    "longitude": 108.15216
  },
  {
    "id": "1971",
    "province_id": "19",
    "name": "PANGKAL PINANG",
    "alt_name": "PANGKAL PINANG",
    "latitude": -2.13333,
    "longitude": 106.13333
  },
  {
    "id": "2101",
    "province_id": "21",
    "name": "KARIMUN",
    "alt_name": "KARIMUN",
    "latitude": 0.80764,
    "longitude": 103.41911
  },
  {
    "id": "2102",
    "province_id": "21",
    "name": "BINTAN",
    "alt_name": "BINTAN",
    "latitude": 0.95,
    "longitude": 104.61944
  },
  {
    "id": "2103",
    "province_id": "21",
    "name": "NATUNA",
    "alt_name": "NATUNA",
    "latitude": 4.71417,
    "longitude": 107.97639
  },
  {
    "id": "2104",
    "province_id": "21",
    "name": "LINGGA",
    "alt_name": "LINGGA",
    "latitude": 0.2,
    "longitude": 104.61667
  },
  {
    "id": "2105",
    "province_id": "21",
    "name": "KEPULAUAN ANAMBAS",
    "alt_name": "KEPULAUAN ANAMBAS",
    "latitude": 3,
    "longitude": 106
  },
  {
    "id": "2171",
    "province_id": "21",
    "name": "BATAM",
    "alt_name": "BATAM",
    "latitude": 1.05211,
    "longitude": 104.02851
  },
  {
    "id": "2172",
    "province_id": "21",
    "name": "TANJUNG PINANG",
    "alt_name": "TANJUNG PINANG",
    "latitude": 0.91683,
    "longitude": 104.44329
  },
  {
    "id": "3101",
    "province_id": "31",
    "name": "KEPULAUAN SERIBU",
    "alt_name": "KEPULAUAN SERIBU",
    "latitude": -5.5985,
    "longitude": 106.55271
  },
  {
    "id": "3171",
    "province_id": "31",
    "name": "JAKARTA SELATAN",
    "alt_name": "JAKARTA SELATAN",
    "latitude": -6.266,
    "longitude": 106.8135
  },
  {
    "id": "3172",
    "province_id": "31",
    "name": "JAKARTA TIMUR",
    "alt_name": "JAKARTA TIMUR",
    "latitude": -6.2521,
    "longitude": 106.884
  },
  {
    "id": "3173",
    "province_id": "31",
    "name": "JAKARTA PUSAT",
    "alt_name": "JAKARTA PUSAT",
    "latitude": -6.1777,
    "longitude": 106.8403
  },
  {
    "id": "3174",
    "province_id": "31",
    "name": "JAKARTA BARAT",
    "alt_name": "JAKARTA BARAT",
    "latitude": -6.1676,
    "longitude": 106.7673
  },
  {
    "id": "3175",
    "province_id": "31",
    "name": "JAKARTA UTARA",
    "alt_name": "JAKARTA UTARA",
    "latitude": -6.1339,
    "longitude": 106.8823
  },
  {
    "id": "3201",
    "province_id": "32",
    "name": "BOGOR",
    "alt_name": "BOGOR",
    "latitude": -6.58333,
    "longitude": 106.71667
  },
  {
    "id": "3202",
    "province_id": "32",
    "name": "SUKABUMI",
    "alt_name": "SUKABUMI",
    "latitude": -7.06667,
    "longitude": 106.7
  },
  {
    "id": "3203",
    "province_id": "32",
    "name": "CIANJUR",
    "alt_name": "CIANJUR",
    "latitude": -6.7725,
    "longitude": 107.08306
  },
  {
    "id": "3204",
    "province_id": "32",
    "name": "BANDUNG",
    "alt_name": "BANDUNG",
    "latitude": -7.1,
    "longitude": 107.6
  },
  {
    "id": "3205",
    "province_id": "32",
    "name": "GARUT",
    "alt_name": "GARUT",
    "latitude": -7.38333,
    "longitude": 107.76667
  },
  {
    "id": "3206",
    "province_id": "32",
    "name": "TASIKMALAYA",
    "alt_name": "TASIKMALAYA",
    "latitude": -7.5,
    "longitude": 108.13333
  },
  {
    "id": "3207",
    "province_id": "32",
    "name": "CIAMIS",
    "alt_name": "CIAMIS",
    "latitude": -7.28333,
    "longitude": 108.41667
  },
  {
    "id": "3208",
    "province_id": "32",
    "name": "KUNINGAN",
    "alt_name": "KUNINGAN",
    "latitude": -7,
    "longitude": 108.55
  },
  {
    "id": "3209",
    "province_id": "32",
    "name": "CIREBON",
    "alt_name": "CIREBON",
    "latitude": -6.8,
    "longitude": 108.56667
  },
  {
    "id": "3210",
    "province_id": "32",
    "name": "MAJALENGKA",
    "alt_name": "MAJALENGKA",
    "latitude": -6.81667,
    "longitude": 108.28333
  },
  {
    "id": "3211",
    "province_id": "32",
    "name": "SUMEDANG",
    "alt_name": "SUMEDANG",
    "latitude": -6.81667,
    "longitude": 107.98333
  },
  {
    "id": "3212",
    "province_id": "32",
    "name": "INDRAMAYU",
    "alt_name": "INDRAMAYU",
    "latitude": -6.45,
    "longitude": 108.16667
  },
  {
    "id": "3213",
    "province_id": "32",
    "name": "SUBANG",
    "alt_name": "SUBANG",
    "latitude": -6.50833,
    "longitude": 107.7025
  },
  {
    "id": "3214",
    "province_id": "32",
    "name": "PURWAKARTA",
    "alt_name": "PURWAKARTA",
    "latitude": -6.58333,
    "longitude": 107.45
  },
  {
    "id": "3215",
    "province_id": "32",
    "name": "KARAWANG",
    "alt_name": "KARAWANG",
    "latitude": -6.26667,
    "longitude": 107.41667
  },
  {
    "id": "3216",
    "province_id": "32",
    "name": "BEKASI",
    "alt_name": "BEKASI",
    "latitude": -6.24667,
    "longitude": 107.10833
  },
  {
    "id": "3217",
    "province_id": "32",
    "name": "BANDUNG BARAT",
    "alt_name": "BANDUNG BARAT",
    "latitude": -6.83333,
    "longitude": 107.48333
  },
  {
    "id": "3218",
    "province_id": "32",
    "name": "PANGANDARAN",
    "alt_name": "PANGANDARAN",
    "latitude": -7.6673,
    "longitude": 108.64037
  },
  {
    "id": "3271",
    "province_id": "32",
    "name": "BOGOR",
    "alt_name": "BOGOR",
    "latitude": -6.59167,
    "longitude": 106.8
  },
  {
    "id": "3272",
    "province_id": "32",
    "name": "SUKABUMI",
    "alt_name": "SUKABUMI",
    "latitude": -6.95,
    "longitude": 106.93333
  },
  {
    "id": "3273",
    "province_id": "32",
    "name": "BANDUNG",
    "alt_name": "BANDUNG",
    "latitude": -6.9175,
    "longitude": 107.62444
  },
  {
    "id": "3274",
    "province_id": "32",
    "name": "CIREBON",
    "alt_name": "CIREBON",
    "latitude": -6.75,
    "longitude": 108.55
  },
  {
    "id": "3275",
    "province_id": "32",
    "name": "BEKASI",
    "alt_name": "BEKASI",
    "latitude": -6.28333,
    "longitude": 106.98333
  },
  {
    "id": "3276",
    "province_id": "32",
    "name": "DEPOK",
    "alt_name": "DEPOK",
    "latitude": -6.4,
    "longitude": 106.81667
  },
  {
    "id": "3277",
    "province_id": "32",
    "name": "CIMAHI",
    "alt_name": "CIMAHI",
    "latitude": -6.89167,
    "longitude": 107.55
  },
  {
    "id": "3278",
    "province_id": "32",
    "name": "TASIKMALAYA",
    "alt_name": "TASIKMALAYA",
    "latitude": -7.35,
    "longitude": 108.21667
  },
  {
    "id": "3279",
    "province_id": "32",
    "name": "BANJAR",
    "alt_name": "BANJAR",
    "latitude": -7.36996,
    "longitude": 108.53209
  },
  {
    "id": "3301",
    "province_id": "33",
    "name": "CILACAP",
    "alt_name": "CILACAP",
    "latitude": -7.57417,
    "longitude": 108.98861
  },
  {
    "id": "3302",
    "province_id": "33",
    "name": "BANYUMAS",
    "alt_name": "BANYUMAS",
    "latitude": -7.45,
    "longitude": 109.16667
  },
  {
    "id": "3303",
    "province_id": "33",
    "name": "PURBALINGGA",
    "alt_name": "PURBALINGGA",
    "latitude": -7.28417,
    "longitude": 109.35028
  },
  {
    "id": "3304",
    "province_id": "33",
    "name": "BANJARNEGARA",
    "alt_name": "BANJARNEGARA",
    "latitude": -7.35111,
    "longitude": 109.5875
  },
  {
    "id": "3305",
    "province_id": "33",
    "name": "KEBUMEN",
    "alt_name": "KEBUMEN",
    "latitude": -7.63917,
    "longitude": 109.66056
  },
  {
    "id": "3306",
    "province_id": "33",
    "name": "PURWOREJO",
    "alt_name": "PURWOREJO",
    "latitude": -7.7,
    "longitude": 109.96667
  },
  {
    "id": "3307",
    "province_id": "33",
    "name": "WONOSOBO",
    "alt_name": "WONOSOBO",
    "latitude": -7.36139,
    "longitude": 109.92667
  },
  {
    "id": "3308",
    "province_id": "33",
    "name": "MAGELANG",
    "alt_name": "MAGELANG",
    "latitude": -7.4275,
    "longitude": 110.16194
  },
  {
    "id": "3309",
    "province_id": "33",
    "name": "BOYOLALI",
    "alt_name": "BOYOLALI",
    "latitude": -7.5,
    "longitude": 110.7
  },
  {
    "id": "3310",
    "province_id": "33",
    "name": "KLATEN",
    "alt_name": "KLATEN",
    "latitude": -7.68333,
    "longitude": 110.61667
  },
  {
    "id": "3311",
    "province_id": "33",
    "name": "SUKOHARJO",
    "alt_name": "SUKOHARJO",
    "latitude": -7.68333,
    "longitude": 110.83333
  },
  {
    "id": "3312",
    "province_id": "33",
    "name": "WONOGIRI",
    "alt_name": "WONOGIRI",
    "latitude": -7.91667,
    "longitude": 111
  },
  {
    "id": "3313",
    "province_id": "33",
    "name": "KARANGANYAR",
    "alt_name": "KARANGANYAR",
    "latitude": -7.62806,
    "longitude": 111.0625
  },
  {
    "id": "3314",
    "province_id": "33",
    "name": "SRAGEN",
    "alt_name": "SRAGEN",
    "latitude": -7.41278,
    "longitude": 110.935
  },
  {
    "id": "3315",
    "province_id": "33",
    "name": "GROBOGAN",
    "alt_name": "GROBOGAN",
    "latitude": -7.11667,
    "longitude": 110.91667
  },
  {
    "id": "3316",
    "province_id": "33",
    "name": "BLORA",
    "alt_name": "BLORA",
    "latitude": -7.06667,
    "longitude": 111.38333
  },
  {
    "id": "3317",
    "province_id": "33",
    "name": "REMBANG",
    "alt_name": "REMBANG",
    "latitude": -6.78333,
    "longitude": 111.46667
  },
  {
    "id": "3318",
    "province_id": "33",
    "name": "PATI",
    "alt_name": "PATI",
    "latitude": -6.76667,
    "longitude": 111.1
  },
  {
    "id": "3319",
    "province_id": "33",
    "name": "KUDUS",
    "alt_name": "KUDUS",
    "latitude": -6.8,
    "longitude": 110.86667
  },
  {
    "id": "3320",
    "province_id": "33",
    "name": "JEPARA",
    "alt_name": "JEPARA",
    "latitude": -6.58333,
    "longitude": 110.76667
  },
  {
    "id": "3321",
    "province_id": "33",
    "name": "DEMAK",
    "alt_name": "DEMAK",
    "latitude": -6.8993,
    "longitude": 110.6122
  },
  {
    "id": "3322",
    "province_id": "33",
    "name": "SEMARANG",
    "alt_name": "SEMARANG",
    "latitude": -7.20667,
    "longitude": 110.44139
  },
  {
    "id": "3323",
    "province_id": "33",
    "name": "TEMANGGUNG",
    "alt_name": "TEMANGGUNG",
    "latitude": -7.25,
    "longitude": 110.11667
  },
  {
    "id": "3324",
    "province_id": "33",
    "name": "KENDAL",
    "alt_name": "KENDAL",
    "latitude": -7.0256,
    "longitude": 110.1685
  },
  {
    "id": "3325",
    "province_id": "33",
    "name": "BATANG",
    "alt_name": "BATANG",
    "latitude": -7.03333,
    "longitude": 109.88333
  },
  {
    "id": "3326",
    "province_id": "33",
    "name": "PEKALONGAN",
    "alt_name": "PEKALONGAN",
    "latitude": -7.0319,
    "longitude": 109.624
  },
  {
    "id": "3327",
    "province_id": "33",
    "name": "PEMALANG",
    "alt_name": "PEMALANG",
    "latitude": -7.03333,
    "longitude": 109.4
  },
  {
    "id": "3328",
    "province_id": "33",
    "name": "TEGAL",
    "alt_name": "TEGAL",
    "latitude": -7.03333,
    "longitude": 109.16667
  },
  {
    "id": "3329",
    "province_id": "33",
    "name": "BREBES",
    "alt_name": "BREBES",
    "latitude": -7.05,
    "longitude": 108.9
  },
  {
    "id": "3371",
    "province_id": "33",
    "name": "MAGELANG",
    "alt_name": "MAGELANG",
    "latitude": -7.5,
    "longitude": 110.225
  },
  {
    "id": "3372",
    "province_id": "33",
    "name": "SURAKARTA",
    "alt_name": "SURAKARTA",
    "latitude": -7.55,
    "longitude": 110.81667
  },
  {
    "id": "3373",
    "province_id": "33",
    "name": "SALATIGA",
    "alt_name": "SALATIGA",
    "latitude": -7.33278,
    "longitude": 110.48333
  },
  {
    "id": "3374",
    "province_id": "33",
    "name": "SEMARANG",
    "alt_name": "SEMARANG",
    "latitude": -7.03333,
    "longitude": 110.38333
  },
  {
    "id": "3375",
    "province_id": "33",
    "name": "PEKALONGAN",
    "alt_name": "PEKALONGAN",
    "latitude": -6.9,
    "longitude": 109.68333
  },
  {
    "id": "3376",
    "province_id": "33",
    "name": "TEGAL",
    "alt_name": "TEGAL",
    "latitude": -6.8686,
    "longitude": 109.1129
  },
  {
    "id": "3401",
    "province_id": "34",
    "name": "KULON PROGO",
    "alt_name": "KULON PROGO",
    "latitude": -7.645,
    "longitude": 110.02694
  },
  {
    "id": "3402",
    "province_id": "34",
    "name": "BANTUL",
    "alt_name": "BANTUL",
    "latitude": -7.9,
    "longitude": 110.36667
  },
  {
    "id": "3403",
    "province_id": "34",
    "name": "GUNUNG KIDUL",
    "alt_name": "GUNUNG KIDUL",
    "latitude": -7.98333,
    "longitude": 110.61667
  },
  {
    "id": "3404",
    "province_id": "34",
    "name": "SLEMAN",
    "alt_name": "SLEMAN",
    "latitude": -7.68167,
    "longitude": 110.32333
  },
  {
    "id": "3471",
    "province_id": "34",
    "name": "YOGYAKARTA",
    "alt_name": "YOGYAKARTA",
    "latitude": -7.8,
    "longitude": 110.375
  },
  {
    "id": "3501",
    "province_id": "35",
    "name": "PACITAN",
    "alt_name": "PACITAN",
    "latitude": -8.13333,
    "longitude": 111.16667
  },
  {
    "id": "3502",
    "province_id": "35",
    "name": "PONOROGO",
    "alt_name": "PONOROGO",
    "latitude": -7.93333,
    "longitude": 111.5
  },
  {
    "id": "3503",
    "province_id": "35",
    "name": "TRENGGALEK",
    "alt_name": "TRENGGALEK",
    "latitude": -8.16667,
    "longitude": 111.61667
  },
  {
    "id": "3504",
    "province_id": "35",
    "name": "TULUNGAGUNG",
    "alt_name": "TULUNGAGUNG",
    "latitude": -8.11667,
    "longitude": 111.91667
  },
  {
    "id": "3505",
    "province_id": "35",
    "name": "BLITAR",
    "alt_name": "BLITAR",
    "latitude": -8.13333,
    "longitude": 112.25
  },
  {
    "id": "3506",
    "province_id": "35",
    "name": "KEDIRI",
    "alt_name": "KEDIRI",
    "latitude": -7.83333,
    "longitude": 112.16667
  },
  {
    "id": "3507",
    "province_id": "35",
    "name": "MALANG",
    "alt_name": "MALANG",
    "latitude": -8.16667,
    "longitude": 112.66667
  },
  {
    "id": "3508",
    "province_id": "35",
    "name": "LUMAJANG",
    "alt_name": "LUMAJANG",
    "latitude": -8.11667,
    "longitude": 113.15
  },
  {
    "id": "3509",
    "province_id": "35",
    "name": "JEMBER",
    "alt_name": "JEMBER",
    "latitude": -8.25,
    "longitude": 113.65
  },
  {
    "id": "3510",
    "province_id": "35",
    "name": "BANYUWANGI",
    "alt_name": "BANYUWANGI",
    "latitude": -8.33333,
    "longitude": 114.2
  },
  {
    "id": "3511",
    "province_id": "35",
    "name": "BONDOWOSO",
    "alt_name": "BONDOWOSO",
    "latitude": -7.9404,
    "longitude": 113.9834
  },
  {
    "id": "3512",
    "province_id": "35",
    "name": "SITUBONDO",
    "alt_name": "SITUBONDO",
    "latitude": -7.71667,
    "longitude": 114.05
  },
  {
    "id": "3513",
    "province_id": "35",
    "name": "PROBOLINGGO",
    "alt_name": "PROBOLINGGO",
    "latitude": -7.86667,
    "longitude": 113.31667
  },
  {
    "id": "3514",
    "province_id": "35",
    "name": "PASURUAN",
    "alt_name": "PASURUAN",
    "latitude": -7.73333,
    "longitude": 112.83333
  },
  {
    "id": "3515",
    "province_id": "35",
    "name": "SIDOARJO",
    "alt_name": "SIDOARJO",
    "latitude": -7.45,
    "longitude": 112.7
  },
  {
    "id": "3516",
    "province_id": "35",
    "name": "MOJOKERTO",
    "alt_name": "MOJOKERTO",
    "latitude": -7.55,
    "longitude": 112.5
  },
  {
    "id": "3517",
    "province_id": "35",
    "name": "JOMBANG",
    "alt_name": "JOMBANG",
    "latitude": -7.55,
    "longitude": 112.25
  },
  {
    "id": "3518",
    "province_id": "35",
    "name": "NGANJUK",
    "alt_name": "NGANJUK",
    "latitude": -7.6,
    "longitude": 111.93333
  },
  {
    "id": "3519",
    "province_id": "35",
    "name": "MADIUN",
    "alt_name": "MADIUN",
    "latitude": -7.61667,
    "longitude": 111.65
  },
  {
    "id": "3520",
    "province_id": "35",
    "name": "MAGETAN",
    "alt_name": "MAGETAN",
    "latitude": -7.64472,
    "longitude": 111.35917
  },
  {
    "id": "3521",
    "province_id": "35",
    "name": "NGAWI",
    "alt_name": "NGAWI",
    "latitude": -7.47444,
    "longitude": 111.33444
  },
  {
    "id": "3522",
    "province_id": "35",
    "name": "BOJONEGORO",
    "alt_name": "BOJONEGORO",
    "latitude": -7.25,
    "longitude": 111.8
  },
  {
    "id": "3523",
    "province_id": "35",
    "name": "TUBAN",
    "alt_name": "TUBAN",
    "latitude": -6.96667,
    "longitude": 111.9
  },
  {
    "id": "3524",
    "province_id": "35",
    "name": "LAMONGAN",
    "alt_name": "LAMONGAN",
    "latitude": -7.13333,
    "longitude": 112.31667
  },
  {
    "id": "3525",
    "province_id": "35",
    "name": "GRESIK",
    "alt_name": "GRESIK",
    "latitude": -7.1933,
    "longitude": 112.553
  },
  {
    "id": "3526",
    "province_id": "35",
    "name": "BANGKALAN",
    "alt_name": "BANGKALAN",
    "latitude": -7.05,
    "longitude": 112.93333
  },
  {
    "id": "3527",
    "province_id": "35",
    "name": "SAMPANG",
    "alt_name": "SAMPANG",
    "latitude": -7.05,
    "longitude": 113.25
  },
  {
    "id": "3528",
    "province_id": "35",
    "name": "PAMEKASAN",
    "alt_name": "PAMEKASAN",
    "latitude": -7.06667,
    "longitude": 113.5
  },
  {
    "id": "3529",
    "province_id": "35",
    "name": "SUMENEP",
    "alt_name": "SUMENEP",
    "latitude": -7.11667,
    "longitude": 114.33333
  },
  {
    "id": "3571",
    "province_id": "35",
    "name": "KEDIRI",
    "alt_name": "KEDIRI",
    "latitude": -7.83333,
    "longitude": 112.01667
  },
  {
    "id": "3572",
    "province_id": "35",
    "name": "BLITAR",
    "alt_name": "BLITAR",
    "latitude": -8.1,
    "longitude": 112.16667
  },
  {
    "id": "3573",
    "province_id": "35",
    "name": "MALANG",
    "alt_name": "MALANG",
    "latitude": -7.975,
    "longitude": 112.63333
  },
  {
    "id": "3574",
    "province_id": "35",
    "name": "PROBOLINGGO",
    "alt_name": "PROBOLINGGO",
    "latitude": -7.78333,
    "longitude": 113.21667
  },
  {
    "id": "3575",
    "province_id": "35",
    "name": "PASURUAN",
    "alt_name": "PASURUAN",
    "latitude": -7.65,
    "longitude": 112.9
  },
  {
    "id": "3576",
    "province_id": "35",
    "name": "MOJOKERTO",
    "alt_name": "MOJOKERTO",
    "latitude": -7.46667,
    "longitude": 112.43333
  },
  {
    "id": "3577",
    "province_id": "35",
    "name": "MADIUN",
    "alt_name": "MADIUN",
    "latitude": -7.63333,
    "longitude": 111.53333
  },
  {
    "id": "3578",
    "province_id": "35",
    "name": "SURABAYA",
    "alt_name": "SURABAYA",
    "latitude": -7.26667,
    "longitude": 112.71667
  },
  {
    "id": "3579",
    "province_id": "35",
    "name": "BATU",
    "alt_name": "BATU",
    "latitude": -7.83272,
    "longitude": 112.53751
  },
  {
    "id": "3601",
    "province_id": "36",
    "name": "PANDEGLANG",
    "alt_name": "PANDEGLANG",
    "latitude": -6.63333,
    "longitude": 105.75
  },
  {
    "id": "3602",
    "province_id": "36",
    "name": "LEBAK",
    "alt_name": "LEBAK",
    "latitude": -6.65,
    "longitude": 106.21667
  },
  {
    "id": "3603",
    "province_id": "36",
    "name": "TANGERANG",
    "alt_name": "TANGERANG",
    "latitude": -6.2,
    "longitude": 106.46667
  },
  {
    "id": "3604",
    "province_id": "36",
    "name": "SERANG",
    "alt_name": "SERANG",
    "latitude": -6.15,
    "longitude": 106
  },
  {
    "id": "3671",
    "province_id": "36",
    "name": "TANGERANG",
    "alt_name": "TANGERANG",
    "latitude": -6.17944,
    "longitude": 106.62991
  },
  {
    "id": "3672",
    "province_id": "36",
    "name": "CILEGON",
    "alt_name": "CILEGON",
    "latitude": -6.01667,
    "longitude": 106.01667
  },
  {
    "id": "3673",
    "province_id": "36",
    "name": "SERANG",
    "alt_name": "SERANG",
    "latitude": -6.12563,
    "longitude": 106.14999
  },
  {
    "id": "3674",
    "province_id": "36",
    "name": "TANGERANG SELATAN",
    "alt_name": "TANGERANG SELATAN",
    "latitude": -6.29373,
    "longitude": 106.71244
  },
  {
    "id": "5101",
    "province_id": "51",
    "name": "JEMBRANA",
    "alt_name": "JEMBRANA",
    "latitude": -8.3,
    "longitude": 114.66667
  },
  {
    "id": "5102",
    "province_id": "51",
    "name": "TABANAN",
    "alt_name": "TABANAN",
    "latitude": -8.43333,
    "longitude": 115.06667
  },
  {
    "id": "5103",
    "province_id": "51",
    "name": "BADUNG",
    "alt_name": "BADUNG",
    "latitude": -8.51667,
    "longitude": 115.2
  },
  {
    "id": "5104",
    "province_id": "51",
    "name": "GIANYAR",
    "alt_name": "GIANYAR",
    "latitude": -8.46667,
    "longitude": 115.28333
  },
  {
    "id": "5105",
    "province_id": "51",
    "name": "KLUNGKUNG",
    "alt_name": "KLUNGKUNG",
    "latitude": -8.55,
    "longitude": 115.4
  },
  {
    "id": "5106",
    "province_id": "51",
    "name": "BANGLI",
    "alt_name": "BANGLI",
    "latitude": -8.28333,
    "longitude": 115.35
  },
  {
    "id": "5107",
    "province_id": "51",
    "name": "KARANG ASEM",
    "alt_name": "KARANG ASEM",
    "latitude": -8.3891,
    "longitude": 115.5393
  },
  {
    "id": "5108",
    "province_id": "51",
    "name": "BULELENG",
    "alt_name": "BULELENG",
    "latitude": -8.25,
    "longitude": 114.96667
  },
  {
    "id": "5171",
    "province_id": "51",
    "name": "DENPASAR",
    "alt_name": "DENPASAR",
    "latitude": -8.66667,
    "longitude": 115.21663
  },
  {
    "id": "5201",
    "province_id": "52",
    "name": "LOMBOK BARAT",
    "alt_name": "LOMBOK BARAT",
    "latitude": -8.69583,
    "longitude": 116.11667
  },
  {
    "id": "5202",
    "province_id": "52",
    "name": "LOMBOK TENGAH",
    "alt_name": "LOMBOK TENGAH",
    "latitude": -8.7,
    "longitude": 116.3
  },
  {
    "id": "5203",
    "province_id": "52",
    "name": "LOMBOK TIMUR",
    "alt_name": "LOMBOK TIMUR",
    "latitude": -8.53333,
    "longitude": 116.53333
  },
  {
    "id": "5204",
    "province_id": "52",
    "name": "SUMBAWA",
    "alt_name": "SUMBAWA",
    "latitude": -8.7439,
    "longitude": 117.3324
  },
  {
    "id": "5205",
    "province_id": "52",
    "name": "DOMPU",
    "alt_name": "DOMPU",
    "latitude": -8.5094,
    "longitude": 118.4816
  },
  {
    "id": "5206",
    "province_id": "52",
    "name": "BIMA",
    "alt_name": "BIMA",
    "latitude": -8.6,
    "longitude": 118.61667
  },
  {
    "id": "5207",
    "province_id": "52",
    "name": "SUMBAWA BARAT",
    "alt_name": "SUMBAWA BARAT",
    "latitude": -8.75159,
    "longitude": 116.92132
  },
  {
    "id": "5208",
    "province_id": "52",
    "name": "LOMBOK UTARA",
    "alt_name": "LOMBOK UTARA",
    "latitude": -8.35214,
    "longitude": 116.40152
  },
  {
    "id": "5271",
    "province_id": "52",
    "name": "MATARAM",
    "alt_name": "MATARAM",
    "latitude": -8.5833,
    "longitude": 116.1167
  },
  {
    "id": "5272",
    "province_id": "52",
    "name": "BIMA",
    "alt_name": "BIMA",
    "latitude": -8.46728,
    "longitude": 118.75259
  },
  {
    "id": "5301",
    "province_id": "53",
    "name": "SUMBA BARAT",
    "alt_name": "SUMBA BARAT",
    "latitude": -9.56667,
    "longitude": 119.45
  },
  {
    "id": "5302",
    "province_id": "53",
    "name": "SUMBA TIMUR",
    "alt_name": "SUMBA TIMUR",
    "latitude": -9.88333,
    "longitude": 120.25
  },
  {
    "id": "5303",
    "province_id": "53",
    "name": "KUPANG",
    "alt_name": "KUPANG",
    "latitude": -9.91667,
    "longitude": 123.83333
  },
  {
    "id": "5304",
    "province_id": "53",
    "name": "TIMOR TENGAH SELATAN",
    "alt_name": "TIMOR TENGAH SELATAN",
    "latitude": -9.83333,
    "longitude": 124.4
  },
  {
    "id": "5305",
    "province_id": "53",
    "name": "TIMOR TENGAH UTARA",
    "alt_name": "TIMOR TENGAH UTARA",
    "latitude": -9.33136,
    "longitude": 124.51904
  },
  {
    "id": "5306",
    "province_id": "53",
    "name": "BELU",
    "alt_name": "BELU",
    "latitude": -9.41258,
    "longitude": 124.95066
  },
  {
    "id": "5307",
    "province_id": "53",
    "name": "ALOR",
    "alt_name": "ALOR",
    "latitude": -8.3,
    "longitude": 124.56667
  },
  {
    "id": "5308",
    "province_id": "53",
    "name": "LEMBATA",
    "alt_name": "LEMBATA",
    "latitude": -8.41396,
    "longitude": 123.55225
  },
  {
    "id": "5309",
    "province_id": "53",
    "name": "FLORES TIMUR",
    "alt_name": "FLORES TIMUR",
    "latitude": -8.24224,
    "longitude": 122.96817
  },
  {
    "id": "5310",
    "province_id": "53",
    "name": "SIKKA",
    "alt_name": "SIKKA",
    "latitude": -8.66667,
    "longitude": 122.36667
  },
  {
    "id": "5311",
    "province_id": "53",
    "name": "ENDE",
    "alt_name": "ENDE",
    "latitude": -8.84056,
    "longitude": 121.66389
  },
  {
    "id": "5312",
    "province_id": "53",
    "name": "NGADA",
    "alt_name": "NGADA",
    "latitude": -8.66667,
    "longitude": 121
  },
  {
    "id": "5313",
    "province_id": "53",
    "name": "MANGGARAI",
    "alt_name": "MANGGARAI",
    "latitude": -8.56667,
    "longitude": 120.41667
  },
  {
    "id": "5314",
    "province_id": "53",
    "name": "ROTE NDAO",
    "alt_name": "ROTE NDAO",
    "latitude": -10.73617,
    "longitude": 123.12054
  },
  {
    "id": "5315",
    "province_id": "53",
    "name": "MANGGARAI BARAT",
    "alt_name": "MANGGARAI BARAT",
    "latitude": -8.64484,
    "longitude": 119.88281
  },
  {
    "id": "5316",
    "province_id": "53",
    "name": "SUMBA TENGAH",
    "alt_name": "SUMBA TENGAH",
    "latitude": -9.62941,
    "longitude": 119.61914
  },
  {
    "id": "5317",
    "province_id": "53",
    "name": "SUMBA BARAT DAYA",
    "alt_name": "SUMBA BARAT DAYA",
    "latitude": -9.56216,
    "longitude": 119.08905
  },
  {
    "id": "5318",
    "province_id": "53",
    "name": "NAGEKEO",
    "alt_name": "NAGEKEO",
    "latitude": -8.8721,
    "longitude": 121.20963
  },
  {
    "id": "5319",
    "province_id": "53",
    "name": "MANGGARAI TIMUR",
    "alt_name": "MANGGARAI TIMUR",
    "latitude": -8.55533,
    "longitude": 120.59761
  },
  {
    "id": "5320",
    "province_id": "53",
    "name": "SABU RAIJUA",
    "alt_name": "SABU RAIJUA",
    "latitude": -10.56286,
    "longitude": 121.78894
  },
  {
    "id": "5321",
    "province_id": "53",
    "name": "MALAKA",
    "alt_name": "MALAKA",
    "latitude": -9.5632,
    "longitude": 124.89481
  },
  {
    "id": "5371",
    "province_id": "53",
    "name": "KUPANG",
    "alt_name": "KUPANG",
    "latitude": -10.21667,
    "longitude": 123.6
  },
  {
    "id": "6101",
    "province_id": "61",
    "name": "SAMBAS",
    "alt_name": "SAMBAS",
    "latitude": 1.41667,
    "longitude": 109.33333
  },
  {
    "id": "6102",
    "province_id": "61",
    "name": "BENGKAYANG",
    "alt_name": "BENGKAYANG",
    "latitude": 1.06911,
    "longitude": 109.66393
  },
  {
    "id": "6103",
    "province_id": "61",
    "name": "LANDAK",
    "alt_name": "LANDAK",
    "latitude": 0.42373,
    "longitude": 109.75917
  },
  {
    "id": "6104",
    "province_id": "61",
    "name": "MEMPAWAH",
    "alt_name": "MEMPAWAH",
    "latitude": 0.25,
    "longitude": 109.16667
  },
  {
    "id": "6105",
    "province_id": "61",
    "name": "SANGGAU",
    "alt_name": "SANGGAU",
    "latitude": 0.25472,
    "longitude": 110.45
  },
  {
    "id": "6106",
    "province_id": "61",
    "name": "KETAPANG",
    "alt_name": "KETAPANG",
    "latitude": -1.58333,
    "longitude": 110.5
  },
  {
    "id": "6107",
    "province_id": "61",
    "name": "SINTANG",
    "alt_name": "SINTANG",
    "latitude": -0.08333,
    "longitude": 112.08333
  },
  {
    "id": "6108",
    "province_id": "61",
    "name": "KAPUAS HULU",
    "alt_name": "KAPUAS HULU",
    "latitude": 0.81667,
    "longitude": 112.76667
  },
  {
    "id": "6109",
    "province_id": "61",
    "name": "SEKADAU",
    "alt_name": "SEKADAU",
    "latitude": 0.03485,
    "longitude": 110.95066
  },
  {
    "id": "6110",
    "province_id": "61",
    "name": "MELAWI",
    "alt_name": "MELAWI",
    "latitude": -0.33617,
    "longitude": 111.698
  },
  {
    "id": "6111",
    "province_id": "61",
    "name": "KAYONG UTARA",
    "alt_name": "KAYONG UTARA",
    "latitude": -1.43711,
    "longitude": 110.79781
  },
  {
    "id": "6112",
    "province_id": "61",
    "name": "KUBU RAYA",
    "alt_name": "KUBU RAYA",
    "latitude": 0.01637,
    "longitude": 109.33731
  },
  {
    "id": "6171",
    "province_id": "61",
    "name": "PONTIANAK",
    "alt_name": "PONTIANAK",
    "latitude": -0.08333,
    "longitude": 109.36667
  },
  {
    "id": "6172",
    "province_id": "61",
    "name": "SINGKAWANG",
    "alt_name": "SINGKAWANG",
    "latitude": 0.90734,
    "longitude": 109.00103
  },
  {
    "id": "6201",
    "province_id": "62",
    "name": "KOTAWARINGIN BARAT",
    "alt_name": "KOTAWARINGIN BARAT",
    "latitude": -2.4,
    "longitude": 111.73333
  },
  {
    "id": "6202",
    "province_id": "62",
    "name": "KOTAWARINGIN TIMUR",
    "alt_name": "KOTAWARINGIN TIMUR",
    "latitude": -2.08333,
    "longitude": 112.75
  },
  {
    "id": "6203",
    "province_id": "62",
    "name": "KAPUAS",
    "alt_name": "KAPUAS",
    "latitude": -2.01667,
    "longitude": 114.38333
  },
  {
    "id": "6204",
    "province_id": "62",
    "name": "BARITO SELATAN",
    "alt_name": "BARITO SELATAN",
    "latitude": -1.86667,
    "longitude": 114.73333
  },
  {
    "id": "6205",
    "province_id": "62",
    "name": "BARITO UTARA",
    "alt_name": "BARITO UTARA",
    "latitude": -0.98333,
    "longitude": 115.1
  },
  {
    "id": "6206",
    "province_id": "62",
    "name": "SUKAMARA",
    "alt_name": "SUKAMARA",
    "latitude": -2.62675,
    "longitude": 111.23681
  },
  {
    "id": "6207",
    "province_id": "62",
    "name": "LAMANDAU",
    "alt_name": "LAMANDAU",
    "latitude": -1.83828,
    "longitude": 111.2869
  },
  {
    "id": "6208",
    "province_id": "62",
    "name": "SERUYAN",
    "alt_name": "SERUYAN",
    "latitude": -2.33333,
    "longitude": 112.25
  },
  {
    "id": "6209",
    "province_id": "62",
    "name": "KATINGAN",
    "alt_name": "KATINGAN",
    "latitude": -2.06667,
    "longitude": 113.4
  },
  {
    "id": "6210",
    "province_id": "62",
    "name": "PULANG PISAU",
    "alt_name": "PULANG PISAU",
    "latitude": -3.11858,
    "longitude": 113.8623
  },
  {
    "id": "6211",
    "province_id": "62",
    "name": "GUNUNG MAS",
    "alt_name": "GUNUNG MAS",
    "latitude": -0.95,
    "longitude": 113.5
  },
  {
    "id": "6212",
    "province_id": "62",
    "name": "BARITO TIMUR",
    "alt_name": "BARITO TIMUR",
    "latitude": -1.93333,
    "longitude": 115.1
  },
  {
    "id": "6213",
    "province_id": "62",
    "name": "MURUNG RAYA",
    "alt_name": "MURUNG RAYA",
    "latitude": -0.01667,
    "longitude": 114.26667
  },
  {
    "id": "6271",
    "province_id": "62",
    "name": "PALANGKA RAYA",
    "alt_name": "PALANGKA RAYA",
    "latitude": -1.76979,
    "longitude": 113.73126
  },
  {
    "id": "6301",
    "province_id": "63",
    "name": "TANAH LAUT",
    "alt_name": "TANAH LAUT",
    "latitude": -3.88333,
    "longitude": 114.86667
  },
  {
    "id": "6302",
    "province_id": "63",
    "name": "BARU",
    "alt_name": "BARU",
    "latitude": -3,
    "longitude": 116
  },
  {
    "id": "6303",
    "province_id": "63",
    "name": "BANJAR",
    "alt_name": "BANJAR",
    "latitude": -3.31667,
    "longitude": 115.08333
  },
  {
    "id": "6304",
    "province_id": "63",
    "name": "BARITO KUALA",
    "alt_name": "BARITO KUALA",
    "latitude": -3.08333,
    "longitude": 114.61667
  },
  {
    "id": "6305",
    "province_id": "63",
    "name": "TAPIN",
    "alt_name": "TAPIN",
    "latitude": -2.91667,
    "longitude": 115.03333
  },
  {
    "id": "6306",
    "province_id": "63",
    "name": "HULU SUNGAI SELATAN",
    "alt_name": "HULU SUNGAI SELATAN",
    "latitude": -2.75,
    "longitude": 115.2
  },
  {
    "id": "6307",
    "province_id": "63",
    "name": "HULU SUNGAI TENGAH",
    "alt_name": "HULU SUNGAI TENGAH",
    "latitude": -2.61667,
    "longitude": 115.41667
  },
  {
    "id": "6308",
    "province_id": "63",
    "name": "HULU SUNGAI UTARA",
    "alt_name": "HULU SUNGAI UTARA",
    "latitude": -2.45,
    "longitude": 115.13333
  },
  {
    "id": "6309",
    "province_id": "63",
    "name": "TABALONG",
    "alt_name": "TABALONG",
    "latitude": -1.88333,
    "longitude": 115.5
  },
  {
    "id": "6310",
    "province_id": "63",
    "name": "TANAH BUMBU",
    "alt_name": "TANAH BUMBU",
    "latitude": -3.45413,
    "longitude": 115.70372
  },
  {
    "id": "6311",
    "province_id": "63",
    "name": "BALANGAN",
    "alt_name": "BALANGAN",
    "latitude": -2.32314,
    "longitude": 115.62922
  },
  {
    "id": "6371",
    "province_id": "63",
    "name": "BANJARMASIN",
    "alt_name": "BANJARMASIN",
    "latitude": -3.32444,
    "longitude": 114.59102
  },
  {
    "id": "6372",
    "province_id": "63",
    "name": "BANJAR BARU",
    "alt_name": "BANJAR BARU",
    "latitude": -3.41667,
    "longitude": 114.83333
  },
  {
    "id": "6401",
    "province_id": "64",
    "name": "PASER",
    "alt_name": "PASER",
    "latitude": -1.43517,
    "longitude": 116.23535
  },
  {
    "id": "6402",
    "province_id": "64",
    "name": "KUTAI BARAT",
    "alt_name": "KUTAI BARAT",
    "latitude": -0.59417,
    "longitude": 115.51575
  },
  {
    "id": "6403",
    "province_id": "64",
    "name": "KUTAI KARTANEGARA",
    "alt_name": "KUTAI KARTANEGARA",
    "latitude": -0.44019,
    "longitude": 116.98139
  },
  {
    "id": "6404",
    "province_id": "64",
    "name": "KUTAI TIMUR",
    "alt_name": "KUTAI TIMUR",
    "latitude": 1.03769,
    "longitude": 117.83112
  },
  {
    "id": "6405",
    "province_id": "64",
    "name": "BERAU",
    "alt_name": "BERAU",
    "latitude": 2,
    "longitude": 117.3
  },
  {
    "id": "6409",
    "province_id": "64",
    "name": "PENAJAM PASER UTARA",
    "alt_name": "PENAJAM PASER UTARA",
    "latitude": -1.25,
    "longitude": 116.83333
  },
  {
    "id": "6411",
    "province_id": "64",
    "name": "MAHAKAM HULU",
    "alt_name": "MAHAKAM HULU",
    "latitude": 0.37822,
    "longitude": 115.38048
  },
  {
    "id": "6471",
    "province_id": "64",
    "name": "BALIKPAPAN",
    "alt_name": "BALIKPAPAN",
    "latitude": -1.16667,
    "longitude": 116.88333
  },
  {
    "id": "6472",
    "province_id": "64",
    "name": "SAMARINDA",
    "alt_name": "SAMARINDA",
    "latitude": -0.43333,
    "longitude": 117.18333
  },
  {
    "id": "6474",
    "province_id": "64",
    "name": "BONTANG",
    "alt_name": "BONTANG",
    "latitude": 0.12526,
    "longitude": 117.49603
  },
  {
    "id": "6501",
    "province_id": "65",
    "name": "MALINAU",
    "alt_name": "MALINAU",
    "latitude": 2.45,
    "longitude": 115.68333
  },
  {
    "id": "6502",
    "province_id": "65",
    "name": "BULUNGAN",
    "alt_name": "BULUNGAN",
    "latitude": 3,
    "longitude": 117.16667
  },
  {
    "id": "6503",
    "province_id": "65",
    "name": "TANA TIDUNG",
    "alt_name": "TANA TIDUNG",
    "latitude": 3.55,
    "longitude": 117.25
  },
  {
    "id": "6504",
    "province_id": "65",
    "name": "NUNUKAN",
    "alt_name": "NUNUKAN",
    "latitude": 4.13333,
    "longitude": 116.7
  },
  {
    "id": "6571",
    "province_id": "65",
    "name": "TARAKAN",
    "alt_name": "TARAKAN",
    "latitude": 3.36667,
    "longitude": 117.6
  },
  {
    "id": "7101",
    "province_id": "71",
    "name": "BOLAANG MONGONDOW",
    "alt_name": "BOLAANG MONGONDOW",
    "latitude": 0.75,
    "longitude": 124.08333
  },
  {
    "id": "7102",
    "province_id": "71",
    "name": "MINAHASA",
    "alt_name": "MINAHASA",
    "latitude": 1.2537,
    "longitude": 124.83
  },
  {
    "id": "7103",
    "province_id": "71",
    "name": "KEPULAUAN SANGIHE",
    "alt_name": "KEPULAUAN SANGIHE",
    "latitude": 3.5,
    "longitude": 125.55
  },
  {
    "id": "7104",
    "province_id": "71",
    "name": "KEPULAUAN TALAUD",
    "alt_name": "KEPULAUAN TALAUD",
    "latitude": 4.31178,
    "longitude": 126.78085
  },
  {
    "id": "7105",
    "province_id": "71",
    "name": "MINAHASA SELATAN",
    "alt_name": "MINAHASA SELATAN",
    "latitude": 1.21291,
    "longitude": 124.59708
  },
  {
    "id": "7106",
    "province_id": "71",
    "name": "MINAHASA UTARA",
    "alt_name": "MINAHASA UTARA",
    "latitude": 1.4025,
    "longitude": 124.96
  },
  {
    "id": "7107",
    "province_id": "71",
    "name": "BOLAANG MONGONDOW UTARA",
    "alt_name": "BOLAANG MONGONDOW UTARA",
    "latitude": 0.78527,
    "longitude": 123.41766
  },
  {
    "id": "7108",
    "province_id": "71",
    "name": "SIAU TAGULANDANG BIARO",
    "alt_name": "SIAU TAGULANDANG BIARO",
    "latitude": 2.11728,
    "longitude": 125.37512
  },
  {
    "id": "7109",
    "province_id": "71",
    "name": "MINAHASA TENGGARA",
    "alt_name": "MINAHASA TENGGARA",
    "latitude": 1.05633,
    "longitude": 124.7925
  },
  {
    "id": "7110",
    "province_id": "71",
    "name": "BOLAANG MONGONDOW SELATAN",
    "alt_name": "BOLAANG MONGONDOW SELATAN",
    "latitude": 0.40912,
    "longitude": 123.75961
  },
  {
    "id": "7111",
    "province_id": "71",
    "name": "BOLAANG MONGONDOW TIMUR",
    "alt_name": "BOLAANG MONGONDOW TIMUR",
    "latitude": 0.72073,
    "longitude": 124.50256
  },
  {
    "id": "7171",
    "province_id": "71",
    "name": "MANADO",
    "alt_name": "MANADO",
    "latitude": 1.51667,
    "longitude": 124.88333
  },
  {
    "id": "7172",
    "province_id": "71",
    "name": "BITUNG",
    "alt_name": "BITUNG",
    "latitude": 1.48333,
    "longitude": 125.15
  },
  {
    "id": "7173",
    "province_id": "71",
    "name": "TOMOHON",
    "alt_name": "TOMOHON",
    "latitude": 1.31307,
    "longitude": 124.83404
  },
  {
    "id": "7174",
    "province_id": "71",
    "name": "KOTAMOBAGU",
    "alt_name": "KOTAMOBAGU",
    "latitude": 0.68915,
    "longitude": 124.32678
  },
  {
    "id": "7201",
    "province_id": "72",
    "name": "BANGGAI KEPULAUAN",
    "alt_name": "BANGGAI KEPULAUAN",
    "latitude": -1.6424,
    "longitude": 123.54881
  },
  {
    "id": "7202",
    "province_id": "72",
    "name": "BANGGAI",
    "alt_name": "BANGGAI",
    "latitude": -1.2835,
    "longitude": 122.8892
  },
  {
    "id": "7203",
    "province_id": "72",
    "name": "MOROWALI",
    "alt_name": "MOROWALI",
    "latitude": -1.89342,
    "longitude": 121.25473
  },
  {
    "id": "7204",
    "province_id": "72",
    "name": "POSO",
    "alt_name": "POSO",
    "latitude": -1.65,
    "longitude": 120.5
  },
  {
    "id": "7205",
    "province_id": "72",
    "name": "DONGGALA",
    "alt_name": "DONGGALA",
    "latitude": -0.58333,
    "longitude": 119.85
  },
  {
    "id": "7206",
    "province_id": "72",
    "name": "TOLI-TOLI",
    "alt_name": "TOLI-TOLI",
    "latitude": 1.30862,
    "longitude": 120.88643
  },
  {
    "id": "7207",
    "province_id": "72",
    "name": "BUOL",
    "alt_name": "BUOL",
    "latitude": 0.75,
    "longitude": 120.75
  },
  {
    "id": "7208",
    "province_id": "72",
    "name": "PARIGI MOUTONG",
    "alt_name": "PARIGI MOUTONG",
    "latitude": 0.3368,
    "longitude": 120.17841
  },
  {
    "id": "7209",
    "province_id": "72",
    "name": "TOJO UNA-UNA",
    "alt_name": "TOJO UNA-UNA",
    "latitude": -1.2036,
    "longitude": 121.48201
  },
  {
    "id": "7210",
    "province_id": "72",
    "name": "SIGI",
    "alt_name": "SIGI",
    "latitude": -1.385,
    "longitude": 119.96694
  },
  {
    "id": "7211",
    "province_id": "72",
    "name": "BANGGAI LAUT",
    "alt_name": "BANGGAI LAUT",
    "latitude": -1.61841,
    "longitude": 123.49388
  },
  {
    "id": "7212",
    "province_id": "72",
    "name": "MOROWALI UTARA",
    "alt_name": "MOROWALI UTARA",
    "latitude": -1.7207,
    "longitude": 121.24649
  },
  {
    "id": "7271",
    "province_id": "72",
    "name": "PALU",
    "alt_name": "PALU",
    "latitude": -0.86972,
    "longitude": 119.9
  },
  {
    "id": "7301",
    "province_id": "73",
    "name": "KEPULAUAN SELAYAR",
    "alt_name": "KEPULAUAN SELAYAR",
    "latitude": -6.81667,
    "longitude": 120.8
  },
  {
    "id": "7302",
    "province_id": "73",
    "name": "BULUKUMBA",
    "alt_name": "BULUKUMBA",
    "latitude": -5.41667,
    "longitude": 120.23333
  },
  {
    "id": "7303",
    "province_id": "73",
    "name": "BANTAENG",
    "alt_name": "BANTAENG",
    "latitude": -5.48333,
    "longitude": 119.98333
  },
  {
    "id": "7304",
    "province_id": "73",
    "name": "JENEPONTO",
    "alt_name": "JENEPONTO",
    "latitude": -5.63333,
    "longitude": 119.73333
  },
  {
    "id": "7305",
    "province_id": "73",
    "name": "TAKALAR",
    "alt_name": "TAKALAR",
    "latitude": -5.41667,
    "longitude": 119.51667
  },
  {
    "id": "7306",
    "province_id": "73",
    "name": "GOWA",
    "alt_name": "GOWA",
    "latitude": -5.31667,
    "longitude": 119.75
  },
  {
    "id": "7307",
    "province_id": "73",
    "name": "SINJAI",
    "alt_name": "SINJAI",
    "latitude": -5.21667,
    "longitude": 120.15
  },
  {
    "id": "7308",
    "province_id": "73",
    "name": "MAROS",
    "alt_name": "MAROS",
    "latitude": -5.05,
    "longitude": 119.71667
  },
  {
    "id": "7309",
    "province_id": "73",
    "name": "PANGKAJENE DAN KEPULAUAN",
    "alt_name": "PANGKAJENE DAN KEPULAUAN",
    "latitude": -4.7827,
    "longitude": 119.5506
  },
  {
    "id": "7310",
    "province_id": "73",
    "name": "BARRU",
    "alt_name": "BARRU",
    "latitude": -4.43333,
    "longitude": 119.68333
  },
  {
    "id": "7311",
    "province_id": "73",
    "name": "BONE",
    "alt_name": "BONE",
    "latitude": -4.7,
    "longitude": 120.13333
  },
  {
    "id": "7312",
    "province_id": "73",
    "name": "SOPPENG",
    "alt_name": "SOPPENG",
    "latitude": -4.3842,
    "longitude": 119.89
  },
  {
    "id": "7313",
    "province_id": "73",
    "name": "WAJO",
    "alt_name": "WAJO",
    "latitude": -4,
    "longitude": 120.16667
  },
  {
    "id": "7314",
    "province_id": "73",
    "name": "SIDENRENG RAPPANG",
    "alt_name": "SIDENRENG RAPPANG",
    "latitude": -3.85,
    "longitude": 119.96667
  },
  {
    "id": "7315",
    "province_id": "73",
    "name": "PINRANG",
    "alt_name": "PINRANG",
    "latitude": -3.61667,
    "longitude": 119.6
  },
  {
    "id": "7316",
    "province_id": "73",
    "name": "ENREKANG",
    "alt_name": "ENREKANG",
    "latitude": -3.5,
    "longitude": 119.86667
  },
  {
    "id": "7317",
    "province_id": "73",
    "name": "LUWU",
    "alt_name": "LUWU",
    "latitude": -2.5577,
    "longitude": 121.3242
  },
  {
    "id": "7318",
    "province_id": "73",
    "name": "TANA TORAJA",
    "alt_name": "TANA TORAJA",
    "latitude": -3.0024,
    "longitude": 119.79655
  },
  {
    "id": "7322",
    "province_id": "73",
    "name": "LUWU UTARA",
    "alt_name": "LUWU UTARA",
    "latitude": -2.6,
    "longitude": 120.25
  },
  {
    "id": "7325",
    "province_id": "73",
    "name": "LUWU TIMUR",
    "alt_name": "LUWU TIMUR",
    "latitude": -2.50957,
    "longitude": 120.3978
  },
  {
    "id": "7326",
    "province_id": "73",
    "name": "TORAJA UTARA",
    "alt_name": "TORAJA UTARA",
    "latitude": -2.92738,
    "longitude": 119.79218
  },
  {
    "id": "7371",
    "province_id": "73",
    "name": "MAKASSAR",
    "alt_name": "MAKASSAR",
    "latitude": -5.15,
    "longitude": 119.45
  },
  {
    "id": "7372",
    "province_id": "73",
    "name": "PARE-PARE",
    "alt_name": "PARE-PARE",
    "latitude": -4.03333,
    "longitude": 119.65
  },
  {
    "id": "7373",
    "province_id": "73",
    "name": "PALOPO",
    "alt_name": "PALOPO",
    "latitude": -2.97841,
    "longitude": 120.11078
  },
  {
    "id": "7401",
    "province_id": "74",
    "name": "BUTON",
    "alt_name": "BUTON",
    "latitude": -5.31667,
    "longitude": 122.58333
  },
  {
    "id": "7402",
    "province_id": "74",
    "name": "MUNA",
    "alt_name": "MUNA",
    "latitude": -4.96667,
    "longitude": 122.66667
  },
  {
    "id": "7403",
    "province_id": "74",
    "name": "KONAWE",
    "alt_name": "KONAWE",
    "latitude": -3.91717,
    "longitude": 122.08823
  },
  {
    "id": "7404",
    "province_id": "74",
    "name": "KOLAKA",
    "alt_name": "KOLAKA",
    "latitude": -4.08333,
    "longitude": 121.66667
  },
  {
    "id": "7405",
    "province_id": "74",
    "name": "KONAWE SELATAN",
    "alt_name": "KONAWE SELATAN",
    "latitude": -4.19191,
    "longitude": 122.44854
  },
  {
    "id": "7406",
    "province_id": "74",
    "name": "BOMBANA",
    "alt_name": "BOMBANA",
    "latitude": -4.6257,
    "longitude": 121.81641
  },
  {
    "id": "7407",
    "province_id": "74",
    "name": "WAKATOBI",
    "alt_name": "WAKATOBI",
    "latitude": -5.31934,
    "longitude": 123.5948
  },
  {
    "id": "7408",
    "province_id": "74",
    "name": "KOLAKA UTARA",
    "alt_name": "KOLAKA UTARA",
    "latitude": -3.10452,
    "longitude": 121.12427
  },
  {
    "id": "7409",
    "province_id": "74",
    "name": "BUTON UTARA",
    "alt_name": "BUTON UTARA",
    "latitude": -5.01457,
    "longitude": 122.93015
  },
  {
    "id": "7410",
    "province_id": "74",
    "name": "KONAWE UTARA",
    "alt_name": "KONAWE UTARA",
    "latitude": -3.41552,
    "longitude": 121.99081
  },
  {
    "id": "7411",
    "province_id": "74",
    "name": "KOLAKA TIMUR",
    "alt_name": "KOLAKA TIMUR",
    "latitude": -4.01807,
    "longitude": 121.86172
  },
  {
    "id": "7412",
    "province_id": "74",
    "name": "KONAWE KEPULAUAN",
    "alt_name": "KONAWE KEPULAUAN",
    "latitude": -4.11656,
    "longitude": 123.10181
  },
  {
    "id": "7413",
    "province_id": "74",
    "name": "MUNA BARAT",
    "alt_name": "MUNA BARAT",
    "latitude": -4.83333,
    "longitude": 122.48333
  },
  {
    "id": "7414",
    "province_id": "74",
    "name": "BUTON TENGAH",
    "alt_name": "BUTON TENGAH",
    "latitude": -5.31667,
    "longitude": 122.33333
  },
  {
    "id": "7415",
    "province_id": "74",
    "name": "BUTON SELATAN",
    "alt_name": "BUTON SELATAN",
    "latitude": -5.56667,
    "longitude": 122.7
  },
  {
    "id": "7471",
    "province_id": "74",
    "name": "KENDARI",
    "alt_name": "KENDARI",
    "latitude": -3.98333,
    "longitude": 122.5
  },
  {
    "id": "7472",
    "province_id": "74",
    "name": "BAUBAU",
    "alt_name": "BAUBAU",
    "latitude": -5.477,
    "longitude": 122.6166
  },
  {
    "id": "7501",
    "province_id": "75",
    "name": "BOALEMO",
    "alt_name": "BOALEMO",
    "latitude": 0.62689,
    "longitude": 122.3568
  },
  {
    "id": "7502",
    "province_id": "75",
    "name": "GORONTALO",
    "alt_name": "GORONTALO",
    "latitude": 0.5728,
    "longitude": 122.2337
  },
  {
    "id": "7503",
    "province_id": "75",
    "name": "POHUWATO",
    "alt_name": "POHUWATO",
    "latitude": 0.7098,
    "longitude": 121.59582
  },
  {
    "id": "7504",
    "province_id": "75",
    "name": "BONE BOLANGO",
    "alt_name": "BONE BOLANGO",
    "latitude": 0.50296,
    "longitude": 123.27501
  },
  {
    "id": "7505",
    "province_id": "75",
    "name": "GORONTALO UTARA",
    "alt_name": "GORONTALO UTARA",
    "latitude": 0.77,
    "longitude": 122.31667
  },
  {
    "id": "7571",
    "province_id": "75",
    "name": "GORONTALO",
    "alt_name": "GORONTALO",
    "latitude": 0.53333,
    "longitude": 123.1
  },
  {
    "id": "7601",
    "province_id": "76",
    "name": "MAJENE",
    "alt_name": "MAJENE",
    "latitude": -3.15,
    "longitude": 118.86667
  },
  {
    "id": "7602",
    "province_id": "76",
    "name": "POLEWALI MANDAR",
    "alt_name": "POLEWALI MANDAR",
    "latitude": -3.3,
    "longitude": 119.16667
  },
  {
    "id": "7603",
    "province_id": "76",
    "name": "MAMASA",
    "alt_name": "MAMASA",
    "latitude": -2.96492,
    "longitude": 119.30631
  },
  {
    "id": "7604",
    "province_id": "76",
    "name": "MAMUJU",
    "alt_name": "MAMUJU",
    "latitude": -2.5,
    "longitude": 119.41667
  },
  {
    "id": "7605",
    "province_id": "76",
    "name": "MAMUJU UTARA",
    "alt_name": "MAMUJU UTARA",
    "latitude": -1.51639,
    "longitude": 119.42139
  },
  {
    "id": "7606",
    "province_id": "76",
    "name": "MAMUJU TENGAH",
    "alt_name": "MAMUJU TENGAH",
    "latitude": -2.8212,
    "longitude": 119.2662
  },
  {
    "id": "8101",
    "province_id": "81",
    "name": "MALUKU TENGGARA BARAT",
    "alt_name": "MALUKU TENGGARA BARAT",
    "latitude": -7.61186,
    "longitude": 131.38
  },
  {
    "id": "8102",
    "province_id": "81",
    "name": "MALUKU TENGGARA",
    "alt_name": "MALUKU TENGGARA",
    "latitude": -5.75,
    "longitude": 132.73334
  },
  {
    "id": "8103",
    "province_id": "81",
    "name": "MALUKU TENGAH",
    "alt_name": "MALUKU TENGAH",
    "latitude": -3.29167,
    "longitude": 128.9675
  },
  {
    "id": "8104",
    "province_id": "81",
    "name": "BURU",
    "alt_name": "BURU",
    "latitude": -3.32767,
    "longitude": 126.68413
  },
  {
    "id": "8105",
    "province_id": "81",
    "name": "KEPULAUAN ARU",
    "alt_name": "KEPULAUAN ARU",
    "latitude": -6.17059,
    "longitude": 134.46991
  },
  {
    "id": "8106",
    "province_id": "81",
    "name": "SERAM BAGIAN BARAT",
    "alt_name": "SERAM BAGIAN BARAT",
    "latitude": -3.1027,
    "longitude": 128.42996
  },
  {
    "id": "8107",
    "province_id": "81",
    "name": "SERAM BAGIAN TIMUR",
    "alt_name": "SERAM BAGIAN TIMUR",
    "latitude": -3.39851,
    "longitude": 130.39166
  },
  {
    "id": "8108",
    "province_id": "81",
    "name": "MALUKU BARAT DAYA",
    "alt_name": "MALUKU BARAT DAYA",
    "latitude": -7.8296,
    "longitude": 126.17386
  },
  {
    "id": "8109",
    "province_id": "81",
    "name": "BURU SELATAN",
    "alt_name": "BURU SELATAN",
    "latitude": -3.52187,
    "longitude": 126.59271
  },
  {
    "id": "8171",
    "province_id": "81",
    "name": "AMBON",
    "alt_name": "AMBON",
    "latitude": -3.7,
    "longitude": 128.18333
  },
  {
    "id": "8172",
    "province_id": "81",
    "name": "TUAL",
    "alt_name": "TUAL",
    "latitude": -5.64301,
    "longitude": 132.74934
  },
  {
    "id": "8201",
    "province_id": "82",
    "name": "HALMAHERA BARAT",
    "alt_name": "HALMAHERA BARAT",
    "latitude": 1.41709,
    "longitude": 127.55264
  },
  {
    "id": "8202",
    "province_id": "82",
    "name": "HALMAHERA TENGAH",
    "alt_name": "HALMAHERA TENGAH",
    "latitude": 0.48056,
    "longitude": 128.25
  },
  {
    "id": "8203",
    "province_id": "82",
    "name": "KEPULAUAN SULA",
    "alt_name": "KEPULAUAN SULA",
    "latitude": -1.8646,
    "longitude": 125.69046
  },
  {
    "id": "8204",
    "province_id": "82",
    "name": "HALMAHERA SELATAN",
    "alt_name": "HALMAHERA SELATAN",
    "latitude": -0.3955,
    "longitude": 127.90833
  },
  {
    "id": "8205",
    "province_id": "82",
    "name": "HALMAHERA UTARA",
    "alt_name": "HALMAHERA UTARA",
    "latitude": 1.73194,
    "longitude": 128.00778
  },
  {
    "id": "8206",
    "province_id": "82",
    "name": "HALMAHERA TIMUR",
    "alt_name": "HALMAHERA TIMUR",
    "latitude": 1.33517,
    "longitude": 128.48627
  },
  {
    "id": "8207",
    "province_id": "82",
    "name": "PULAU MOROTAI",
    "alt_name": "PULAU MOROTAI",
    "latitude": 2.19924,
    "longitude": 128.40546
  },
  {
    "id": "8208",
    "province_id": "82",
    "name": "PULAU TALIABU",
    "alt_name": "PULAU TALIABU",
    "latitude": -1.84578,
    "longitude": 124.78992
  },
  {
    "id": "8271",
    "province_id": "82",
    "name": "TERNATE",
    "alt_name": "TERNATE",
    "latitude": 0.89618,
    "longitude": 127.31016
  },
  {
    "id": "8272",
    "province_id": "82",
    "name": "TIDORE KEPULAUAN",
    "alt_name": "TIDORE KEPULAUAN",
    "latitude": 0.60962,
    "longitude": 127.56981
  },
  {
    "id": "9101",
    "province_id": "91",
    "name": "FAK-FAK",
    "alt_name": "FAK-FAK",
    "latitude": -2.92641,
    "longitude": 132.29608
  },
  {
    "id": "9102",
    "province_id": "91",
    "name": "KAIMANA",
    "alt_name": "KAIMANA",
    "latitude": -3.66093,
    "longitude": 133.77451
  },
  {
    "id": "9103",
    "province_id": "91",
    "name": "TELUK WONDAMA",
    "alt_name": "TELUK WONDAMA",
    "latitude": -2.7,
    "longitude": 134.5
  },
  {
    "id": "9104",
    "province_id": "91",
    "name": "TELUK BINTUNI",
    "alt_name": "TELUK BINTUNI",
    "latitude": -1.88037,
    "longitude": 133.33105
  },
  {
    "id": "9105",
    "province_id": "91",
    "name": "MANOKWARI",
    "alt_name": "MANOKWARI",
    "latitude": -0.9,
    "longitude": 133.75
  },
  {
    "id": "9106",
    "province_id": "91",
    "name": "SORONG SELATAN",
    "alt_name": "SORONG SELATAN",
    "latitude": -1.50495,
    "longitude": 132.28638
  },
  {
    "id": "9107",
    "province_id": "91",
    "name": "SORONG",
    "alt_name": "SORONG",
    "latitude": -1.16667,
    "longitude": 131.5
  },
  {
    "id": "9108",
    "province_id": "91",
    "name": "RAJA AMPAT",
    "alt_name": "RAJA AMPAT",
    "latitude": -0.5,
    "longitude": 130
  },
  {
    "id": "9109",
    "province_id": "91",
    "name": "TAMBRAUW",
    "alt_name": "TAMBRAUW",
    "latitude": -0.60515,
    "longitude": 132.48962
  },
  {
    "id": "9110",
    "province_id": "91",
    "name": "MAYBRAT",
    "alt_name": "MAYBRAT",
    "latitude": -1.2155,
    "longitude": 132.35092
  },
  {
    "id": "9111",
    "province_id": "91",
    "name": "MANOKWARI SELATAN",
    "alt_name": "MANOKWARI SELATAN",
    "latitude": -1.0798,
    "longitude": 133.96729
  },
  {
    "id": "9112",
    "province_id": "91",
    "name": "PEGUNUNGAN ARFAK",
    "alt_name": "PEGUNUNGAN ARFAK",
    "latitude": -0.93523,
    "longitude": 133.89587
  },
  {
    "id": "9171",
    "province_id": "91",
    "name": "SORONG",
    "alt_name": "SORONG",
    "latitude": -0.86507,
    "longitude": 131.25153
  },
  {
    "id": "9401",
    "province_id": "94",
    "name": "MERAUKE",
    "alt_name": "MERAUKE",
    "latitude": -7.66667,
    "longitude": 139.66667
  },
  {
    "id": "9402",
    "province_id": "94",
    "name": "JAYAWIJAYA",
    "alt_name": "JAYAWIJAYA",
    "latitude": -4.08333,
    "longitude": 139.08333
  },
  {
    "id": "9403",
    "province_id": "94",
    "name": "JAYAPURA",
    "alt_name": "JAYAPURA",
    "latitude": -3,
    "longitude": 139.95
  },
  {
    "id": "9404",
    "province_id": "94",
    "name": "NABIRE",
    "alt_name": "NABIRE",
    "latitude": -3.54016,
    "longitude": 135.55511
  },
  {
    "id": "9408",
    "province_id": "94",
    "name": "KEPULAUAN YAPEN",
    "alt_name": "KEPULAUAN YAPEN",
    "latitude": -1.78773,
    "longitude": 136.27716
  },
  {
    "id": "9409",
    "province_id": "94",
    "name": "BIAK NUMFOR",
    "alt_name": "BIAK NUMFOR",
    "latitude": -1.03333,
    "longitude": 136
  },
  {
    "id": "9410",
    "province_id": "94",
    "name": "PANIAI",
    "alt_name": "PANIAI",
    "latitude": -3.9,
    "longitude": 136.60001
  },
  {
    "id": "9411",
    "province_id": "94",
    "name": "PUNCAK JAYA",
    "alt_name": "PUNCAK JAYA",
    "latitude": -3.67241,
    "longitude": 137.43896
  },
  {
    "id": "9412",
    "province_id": "94",
    "name": "MIMIKA",
    "alt_name": "MIMIKA",
    "latitude": -4.54357,
    "longitude": 136.56555
  },
  {
    "id": "9413",
    "province_id": "94",
    "name": "BOVEN DIGOEL",
    "alt_name": "BOVEN DIGOEL",
    "latitude": -5.70519,
    "longitude": 140.36349
  },
  {
    "id": "9414",
    "province_id": "94",
    "name": "MAPPI",
    "alt_name": "MAPPI",
    "latitude": -6.49971,
    "longitude": 139.34441
  },
  {
    "id": "9415",
    "province_id": "94",
    "name": "ASMAT",
    "alt_name": "ASMAT",
    "latitude": -5.3795,
    "longitude": 138.46344
  },
  {
    "id": "9416",
    "province_id": "94",
    "name": "YAHUKIMO",
    "alt_name": "YAHUKIMO",
    "latitude": -4.60403,
    "longitude": 139.58405
  },
  {
    "id": "9417",
    "province_id": "94",
    "name": "PEGUNUNGAN BINTANG",
    "alt_name": "PEGUNUNGAN BINTANG",
    "latitude": -4.52167,
    "longitude": 140.29541
  },
  {
    "id": "9418",
    "province_id": "94",
    "name": "TOLIKARA",
    "alt_name": "TOLIKARA",
    "latitude": -3.42661,
    "longitude": 137.41699
  },
  {
    "id": "9419",
    "province_id": "94",
    "name": "SARMI",
    "alt_name": "SARMI",
    "latitude": -2.41667,
    "longitude": 139.08333
  },
  {
    "id": "9420",
    "province_id": "94",
    "name": "KEEROM",
    "alt_name": "KEEROM",
    "latitude": -3.3,
    "longitude": 140.61667
  },
  {
    "id": "9426",
    "province_id": "94",
    "name": "WAROPEN",
    "alt_name": "WAROPEN",
    "latitude": -2.286,
    "longitude": 137.01837
  },
  {
    "id": "9427",
    "province_id": "94",
    "name": "SUPIORI",
    "alt_name": "SUPIORI",
    "latitude": -0.73881,
    "longitude": 135.61111
  },
  {
    "id": "9428",
    "province_id": "94",
    "name": "MAMBERAMO RAYA",
    "alt_name": "MAMBERAMO RAYA",
    "latitude": -2.23561,
    "longitude": 137.78229
  },
  {
    "id": "9429",
    "province_id": "94",
    "name": "NDUGA",
    "alt_name": "NDUGA",
    "latitude": -4.45093,
    "longitude": 138.10089
  },
  {
    "id": "9430",
    "province_id": "94",
    "name": "LANNY JAYA",
    "alt_name": "LANNY JAYA",
    "latitude": -3.91244,
    "longitude": 138.28766
  },
  {
    "id": "9431",
    "province_id": "94",
    "name": "MAMBERAMO TENGAH",
    "alt_name": "MAMBERAMO TENGAH",
    "latitude": -2.46064,
    "longitude": 138.45245
  },
  {
    "id": "9432",
    "province_id": "94",
    "name": "YALIMO",
    "alt_name": "YALIMO",
    "latitude": -3.86037,
    "longitude": 138.47305
  },
  {
    "id": "9433",
    "province_id": "94",
    "name": "PUNCAK",
    "alt_name": "PUNCAK",
    "latitude": -4.14204,
    "longitude": 137.09702
  },
  {
    "id": "9434",
    "province_id": "94",
    "name": "DOGIYAI",
    "alt_name": "DOGIYAI",
    "latitude": -4.03186,
    "longitude": 135.43945
  },
  {
    "id": "9435",
    "province_id": "94",
    "name": "INTAN JAYA",
    "alt_name": "INTAN JAYA",
    "latitude": -3.41016,
    "longitude": 136.70837
  },
  {
    "id": "9436",
    "province_id": "94",
    "name": "DEIYAI",
    "alt_name": "DEIYAI",
    "latitude": -3.94737,
    "longitude": 135.95032
  },
  {
    "id": "9471",
    "province_id": "94",
    "name": "JAYAPURA",
    "alt_name": "JAYAPURA",
    "latitude": -2.64647,
    "longitude": 140.77779
  }
]
